@Sonygps/ver5.0/wgs-84/20171105135644.000/
@Sonygpsoption/0/20171105135645.000/20171105135645.000/
$GPGGA,135645.000,4239.4440,N,2317.0752,E,1,0,,,M,,M,,*4D
$GPRMC,135645.000,A,4239.4440,N,2317.0752,E,0.01,,051117,,,A*4D
$GPGGA,135646.000,4239.4440,N,2317.0752,E,1,0,,,M,,M,,*4E
$GPRMC,135646.000,A,4239.4440,N,2317.0752,E,0.00,,051117,,,A*4F
$GPGGA,135647.000,4239.4440,N,2317.0752,E,1,0,,,M,,M,,*4F
$GPRMC,135647.000,A,4239.4440,N,2317.0752,E,0.01,,051117,,,A*4F
$GPGGA,135648.000,4239.4440,N,2317.0752,E,1,0,,,M,,M,,*40
$GPRMC,135648.000,A,4239.4440,N,2317.0752,E,0.00,,051117,,,A*41
$GPGGA,135649.000,4239.4440,N,2317.0752,E,1,0,,,M,,M,,*41
$GPRMC,135649.000,A,4239.4440,N,2317.0752,E,0.01,,051117,,,A*41
$GPGGA,135650.000,4239.4440,N,2317.0752,E,1,0,,,M,,M,,*49
$GPRMC,135650.000,A,4239.4440,N,2317.0752,E,0.01,,051117,,,A*49
$GPGGA,135651.000,4239.4440,N,2317.0752,E,1,0,,,M,,M,,*48
$GPRMC,135651.000,A,4239.4440,N,2317.0752,E,0.01,,051117,,,A*48
$GPGGA,135652.000,4239.4440,N,2317.0752,E,1,0,,,M,,M,,*4B
$GPRMC,135652.000,A,4239.4440,N,2317.0752,E,0.02,,051117,,,A*48
$GPGGA,135653.000,4239.4440,N,2317.0752,E,1,0,,,M,,M,,*4A
$GPRMC,135653.000,A,4239.4440,N,2317.0752,E,0.02,,051117,,,A*49
$GPGGA,135654.000,4239.4440,N,2317.0752,E,1,0,,,M,,M,,*4D
$GPRMC,135654.000,A,4239.4440,N,2317.0752,E,0.02,,051117,,,A*4E
$GPGGA,135655.000,4239.4440,N,2317.0752,E,1,0,,,M,,M,,*4C
$GPRMC,135655.000,A,4239.4440,N,2317.0752,E,0.01,,051117,,,A*4C
$GPGGA,135656.000,4239.4440,N,2317.0752,E,1,0,,,M,,M,,*4F
$GPRMC,135656.000,A,4239.4440,N,2317.0752,E,0.01,,051117,,,A*4F
$GPGGA,135657.000,4239.4440,N,2317.0752,E,1,0,,,M,,M,,*4E
$GPRMC,135657.000,A,4239.4440,N,2317.0752,E,0.04,,051117,,,A*4B
$GPGGA,135658.000,4239.4440,N,2317.0752,E,1,0,,,M,,M,,*41
$GPRMC,135658.000,A,4239.4440,N,2317.0752,E,0.01,,051117,,,A*41
$GPGGA,135659.000,4239.4440,N,2317.0752,E,1,0,,,M,,M,,*40
$GPRMC,135659.000,A,4239.4440,N,2317.0752,E,0.02,,051117,,,A*43
$GPGGA,135700.000,4239.4440,N,2317.0752,E,1,0,,,M,,M,,*4D
$GPRMC,135700.000,A,4239.4440,N,2317.0752,E,0.01,,051117,,,A*4D
$GPGGA,135701.000,4239.4440,N,2317.0752,E,1,0,,,M,,M,,*4C
$GPRMC,135701.000,A,4239.4440,N,2317.0752,E,0.01,,051117,,,A*4C
$GPGGA,135702.000,4239.4440,N,2317.0752,E,1,0,,,M,,M,,*4F
$GPRMC,135702.000,A,4239.4440,N,2317.0752,E,0.00,,051117,,,A*4E
$GPGGA,135703.000,4239.4440,N,2317.0752,E,1,0,,,M,,M,,*4E
$GPRMC,135703.000,A,4239.4440,N,2317.0752,E,0.00,,051117,,,A*4F
$GPGGA,135704.000,4239.4440,N,2317.0752,E,1,0,,,M,,M,,*49
$GPRMC,135704.000,A,4239.4440,N,2317.0752,E,0.00,,051117,,,A*48
$GPGGA,135705.000,4239.4440,N,2317.0752,E,1,0,,,M,,M,,*48
$GPRMC,135705.000,A,4239.4440,N,2317.0752,E,0.01,,051117,,,A*48
$GPGGA,135706.000,4239.4440,N,2317.0752,E,1,0,,,M,,M,,*4B
$GPRMC,135706.000,A,4239.4440,N,2317.0752,E,0.02,,051117,,,A*48
$GPGGA,135707.000,4239.4440,N,2317.0752,E,1,0,,,M,,M,,*4A
$GPRMC,135707.000,A,4239.4440,N,2317.0752,E,0.01,,051117,,,A*4A
$GPGGA,135708.000,4239.4440,N,2317.0752,E,1,0,,,M,,M,,*45
$GPRMC,135708.000,A,4239.4440,N,2317.0752,E,0.03,,051117,,,A*47
$GPGGA,135709.000,4239.4440,N,2317.0752,E,1,0,,,M,,M,,*44
$GPRMC,135709.000,A,4239.4440,N,2317.0752,E,0.00,,051117,,,A*45
$GPGGA,135710.000,4239.4440,N,2317.0752,E,1,0,,,M,,M,,*4C
$GPRMC,135710.000,A,4239.4440,N,2317.0752,E,0.00,,051117,,,A*4D
$GPGGA,135711.000,4239.4440,N,2317.0752,E,1,0,,,M,,M,,*4D
$GPRMC,135711.000,A,4239.4440,N,2317.0752,E,0.01,,051117,,,A*4D
$GPGGA,135712.000,4239.4440,N,2317.0752,E,1,0,,,M,,M,,*4E
$GPRMC,135712.000,A,4239.4440,N,2317.0752,E,0.01,,051117,,,A*4E
$GPGGA,135713.000,4239.4440,N,2317.0752,E,1,0,,,M,,M,,*4F
$GPRMC,135713.000,A,4239.4440,N,2317.0752,E,0.03,,051117,,,A*4D
$GPGGA,135714.000,4239.4440,N,2317.0752,E,1,0,,,M,,M,,*48
$GPRMC,135714.000,A,4239.4440,N,2317.0752,E,0.03,,051117,,,A*4A
$GPGGA,135715.000,4239.4440,N,2317.0752,E,1,0,,,M,,M,,*49
$GPRMC,135715.000,A,4239.4440,N,2317.0752,E,0.01,,051117,,,A*49
$GPGGA,135716.000,4239.4440,N,2317.0752,E,1,0,,,M,,M,,*4A
$GPRMC,135716.000,A,4239.4440,N,2317.0752,E,0.02,,051117,,,A*49
$GPGGA,135717.000,4239.4440,N,2317.0752,E,1,0,,,M,,M,,*4B
$GPRMC,135717.000,A,4239.4440,N,2317.0752,E,0.01,,051117,,,A*4B
$GPGGA,135718.000,4239.4440,N,2317.0752,E,1,0,,,M,,M,,*44
$GPRMC,135718.000,A,4239.4440,N,2317.0752,E,0.02,,051117,,,A*47
$GPGGA,135719.000,4239.4440,N,2317.0752,E,1,0,,,M,,M,,*45
$GPRMC,135719.000,A,4239.4440,N,2317.0752,E,0.02,,051117,,,A*46
$GPGGA,135720.000,4239.4440,N,2317.0752,E,1,0,,,M,,M,,*4F
$GPRMC,135720.000,A,4239.4440,N,2317.0752,E,0.03,,051117,,,A*4D
$GPGGA,135721.000,4239.4440,N,2317.0752,E,1,0,,,M,,M,,*4E
$GPRMC,135721.000,A,4239.4440,N,2317.0752,E,0.02,,051117,,,A*4D
$GPGGA,135722.000,4239.4440,N,2317.0752,E,1,0,,,M,,M,,*4D
$GPRMC,135722.000,A,4239.4440,N,2317.0752,E,0.06,,051117,,,A*4A
$GPGGA,135723.000,4239.4440,N,2317.0752,E,1,0,,,M,,M,,*4C
$GPRMC,135723.000,A,4239.4440,N,2317.0752,E,0.19,,051117,,,A*45
$GPGGA,135724.000,4239.4440,N,2317.0752,E,1,0,,,M,,M,,*4B
$GPRMC,135724.000,A,4239.4440,N,2317.0752,E,0.35,,051117,,,A*4C
$GPGGA,135725.000,4239.4440,N,2317.0753,E,1,0,,,M,,M,,*4B
$GPRMC,135725.000,A,4239.4440,N,2317.0753,E,0.87,,051117,,,A*45
$GPGGA,135726.000,4239.4438,N,2317.0751,E,1,0,,,M,,M,,*45
$GPRMC,135726.000,A,4239.4438,N,2317.0751,E,2.45,,051117,,,A*47
$GPGGA,135727.000,4239.4433,N,2317.0747,E,1,0,,,M,,M,,*48
$GPRMC,135727.000,A,4239.4433,N,2317.0747,E,1.78,,051117,,,A*47
$GPGGA,135728.000,4239.4425,N,2317.0743,E,1,0,,,M,,M,,*44
$GPRMC,135728.000,A,4239.4425,N,2317.0743,E,3.43,,051117,,,A*41
$GPGGA,135729.000,4239.4412,N,2317.0736,E,1,0,,,M,,M,,*43
$GPRMC,135729.000,A,4239.4412,N,2317.0736,E,4.77,,051117,,,A*46
$GPGGA,135730.000,4239.4396,N,2317.0732,E,1,0,,,M,,M,,*44
$GPRMC,135730.000,A,4239.4396,N,2317.0732,E,5.92,,051117,,,A*4B
$GPGGA,135731.000,4239.4378,N,2317.0728,E,1,0,,,M,,M,,*4E
$GPRMC,135731.000,A,4239.4378,N,2317.0728,E,6.43,,051117,,,A*4E
$GPGGA,135732.000,4239.4357,N,2317.0724,E,1,0,,,M,,M,,*4C
$GPRMC,135732.000,A,4239.4357,N,2317.0724,E,6.81,,051117,,,A*42
$GPGGA,135733.000,4239.4335,N,2317.0721,E,1,0,,,M,,M,,*4C
$GPRMC,135733.000,A,4239.4335,N,2317.0721,E,7.53,,051117,,,A*4C
$GPGGA,135734.000,4239.4312,N,2317.0717,E,1,0,,,M,,M,,*4B
$GPRMC,135734.000,A,4239.4312,N,2317.0717,E,8.39,,051117,,,A*48
$GPGGA,135735.000,4239.4287,N,2317.0712,E,1,0,,,M,,M,,*42
$GPRMC,135735.000,A,4239.4287,N,2317.0712,E,9.83,,051117,,,A*41
$GPGGA,135736.000,4239.4262,N,2317.0706,E,1,0,,,M,,M,,*4F
$GPRMC,135736.000,A,4239.4262,N,2317.0706,E,8.53,,051117,,,A*40
$GPGGA,135737.000,4239.4238,N,2317.0700,E,1,0,,,M,,M,,*47
$GPRMC,135737.000,A,4239.4238,N,2317.0700,E,8.19,,051117,,,A*46
$GPGGA,135738.000,4239.4213,N,2317.0694,E,1,0,,,M,,M,,*4D
$GPRMC,135738.000,A,4239.4213,N,2317.0694,E,8.63,,051117,,,A*41
$GPGGA,135739.000,4239.4189,N,2317.0688,E,1,0,,,M,,M,,*41
$GPRMC,135739.000,A,4239.4189,N,2317.0688,E,8.70,,051117,,,A*4F
$GPGGA,135740.000,4239.4165,N,2317.0680,E,1,0,,,M,,M,,*45
$GPRMC,135740.000,A,4239.4165,N,2317.0680,E,8.53,,051117,,,A*4A
$GPGGA,135741.000,4239.4143,N,2317.0672,E,1,0,,,M,,M,,*4D
$GPRMC,135741.000,A,4239.4143,N,2317.0672,E,8.24,,051117,,,A*42
$GPGGA,135742.000,4239.4120,N,2317.0664,E,1,0,,,M,,M,,*4C
$GPRMC,135742.000,A,4239.4120,N,2317.0664,E,8.06,,051117,,,A*43
$GPGGA,135743.000,4239.4099,N,2317.0657,E,1,0,,,M,,M,,*4E
$GPRMC,135743.000,A,4239.4099,N,2317.0657,E,7.83,,051117,,,A*43
$GPGGA,135744.000,4239.4077,N,2317.0650,E,1,0,,,M,,M,,*4E
$GPRMC,135744.000,A,4239.4077,N,2317.0650,E,8.02,,051117,,,A*45
$GPGGA,135745.000,4239.4056,N,2317.0643,E,1,0,,,M,,M,,*4E
$GPRMC,135745.000,A,4239.4056,N,2317.0643,E,8.01,,051117,,,A*46
$GPGGA,135746.000,4239.4035,N,2317.0635,E,1,0,,,M,,M,,*49
$GPRMC,135746.000,A,4239.4035,N,2317.0635,E,7.83,,051117,,,A*44
$GPGGA,135747.000,4239.4014,N,2317.0627,E,1,0,,,M,,M,,*48
$GPRMC,135747.000,A,4239.4014,N,2317.0627,E,7.80,,051117,,,A*46
$GPGGA,135748.000,4239.3992,N,2317.0620,E,1,0,,,M,,M,,*40
$GPRMC,135748.000,A,4239.3992,N,2317.0620,E,7.76,,051117,,,A*47
$GPGGA,135749.000,4239.3969,N,2317.0612,E,1,0,,,M,,M,,*44
$GPRMC,135749.000,A,4239.3969,N,2317.0612,E,8.33,,051117,,,A*4D
$GPGGA,135750.000,4239.3946,N,2317.0603,E,1,0,,,M,,M,,*41
$GPRMC,135750.000,A,4239.3946,N,2317.0603,E,8.29,,051117,,,A*43
$GPGGA,135751.000,4239.3923,N,2317.0593,E,1,0,,,M,,M,,*49
$GPRMC,135751.000,A,4239.3923,N,2317.0593,E,8.30,,051117,,,A*43
$GPGGA,135752.000,4239.3901,N,2317.0583,E,1,0,,,M,,M,,*4B
$GPRMC,135752.000,A,4239.3901,N,2317.0583,E,7.77,,051117,,,A*4D
$GPGGA,135753.000,4239.3880,N,2317.0576,E,1,0,,,M,,M,,*48
$GPRMC,135753.000,A,4239.3880,N,2317.0576,E,7.28,,051117,,,A*44
$GPGGA,135754.000,4239.3859,N,2317.0569,E,1,0,,,M,,M,,*45
$GPRMC,135754.000,A,4239.3859,N,2317.0569,E,7.75,,051117,,,A*41
$GPGGA,135755.000,4239.3837,N,2317.0561,E,1,0,,,M,,M,,*44
$GPRMC,135755.000,A,4239.3837,N,2317.0561,E,7.69,,051117,,,A*4D
$GPGGA,135756.000,4239.3815,N,2317.0554,E,1,0,,,M,,M,,*41
$GPRMC,135756.000,A,4239.3815,N,2317.0554,E,7.95,,051117,,,A*4B
$GPGGA,135757.000,4239.3793,N,2317.0545,E,1,0,,,M,,M,,*41
$GPRMC,135757.000,A,4239.3793,N,2317.0545,E,8.02,,051117,,,A*4A
$GPGGA,135758.000,4239.3772,N,2317.0534,E,1,0,,,M,,M,,*47
$GPRMC,135758.000,A,4239.3772,N,2317.0534,E,8.36,,051117,,,A*4B
$GPGGA,135759.000,4239.3751,N,2317.0527,E,1,0,,,M,,M,,*45
$GPRMC,135759.000,A,4239.3751,N,2317.0527,E,7.16,,051117,,,A*44
$GPGGA,135800.000,4239.3730,N,2317.0522,E,1,0,,,M,,M,,*44
$GPRMC,135800.000,A,4239.3730,N,2317.0522,E,7.59,,051117,,,A*4E
$GPGGA,135801.000,4239.3707,N,2317.0519,E,1,0,,,M,,M,,*49
$GPRMC,135801.000,A,4239.3707,N,2317.0519,E,8.09,,051117,,,A*49
$GPGGA,135802.000,4239.3684,N,2317.0513,E,1,0,,,M,,M,,*4A
$GPRMC,135802.000,A,4239.3684,N,2317.0513,E,7.88,,051117,,,A*4C
$GPGGA,135803.000,4239.3660,N,2317.0505,E,1,0,,,M,,M,,*46
$GPRMC,135803.000,A,4239.3660,N,2317.0505,E,8.67,,051117,,,A*4E
$GPGGA,135804.000,4239.3633,N,2317.0497,E,1,0,,,M,,M,,*4D
$GPRMC,135804.000,A,4239.3633,N,2317.0497,E,8.90,,051117,,,A*4D
$GPGGA,135805.000,4239.3608,N,2317.0490,E,1,0,,,M,,M,,*43
$GPRMC,135805.000,A,4239.3608,N,2317.0490,E,9.24,,051117,,,A*4D
$GPGGA,135806.000,4239.3581,N,2317.0481,E,1,0,,,M,,M,,*42
$GPRMC,135806.000,A,4239.3581,N,2317.0481,E,9.49,,051117,,,A*47
$GPGGA,135807.000,4239.3555,N,2317.0469,E,1,0,,,M,,M,,*4C
$GPRMC,135807.000,A,4239.3555,N,2317.0469,E,9.57,,051117,,,A*46
$GPGGA,135808.000,4239.3527,N,2317.0453,E,1,0,,,M,,M,,*4F
$GPRMC,135808.000,A,4239.3527,N,2317.0453,E,9.89,,051117,,,A*46
$GPGGA,135809.000,4239.3501,N,2317.0438,E,1,0,,,M,,M,,*47
$GPRMC,135809.000,A,4239.3501,N,2317.0438,E,9.92,,051117,,,A*44
$GPGGA,135810.000,4239.3474,N,2317.0423,E,1,0,,,M,,M,,*46
$GPRMC,135810.000,A,4239.3474,N,2317.0423,E,9.96,,051117,,,A*41
$GPGGA,135811.000,4239.3448,N,2317.0408,E,1,0,,,M,,M,,*41
$GPRMC,135811.000,A,4239.3448,N,2317.0408,E,9.89,,051117,,,A*48
$GPGGA,135812.000,4239.3423,N,2317.0394,E,1,0,,,M,,M,,*4D
$GPRMC,135812.000,A,4239.3423,N,2317.0394,E,9.66,,051117,,,A*45
$GPGGA,135813.000,4239.3398,N,2317.0379,E,1,0,,,M,,M,,*48
$GPRMC,135813.000,A,4239.3398,N,2317.0379,E,9.70,,051117,,,A*47
$GPGGA,135814.000,4239.3373,N,2317.0365,E,1,0,,,M,,M,,*47
$GPRMC,135814.000,A,4239.3373,N,2317.0365,E,9.76,,051117,,,A*4E
$GPGGA,135815.000,4239.3348,N,2317.0349,E,1,0,,,M,,M,,*40
$GPRMC,135815.000,A,4239.3348,N,2317.0349,E,9.72,,051117,,,A*4D
$GPGGA,135816.000,4239.3323,N,2317.0333,E,1,0,,,M,,M,,*43
$GPRMC,135816.000,A,4239.3323,N,2317.0333,E,9.77,,051117,,,A*4B
$GPGGA,135817.000,4239.3297,N,2317.0316,E,1,0,,,M,,M,,*4B
$GPRMC,135817.000,A,4239.3297,N,2317.0316,E,9.84,,051117,,,A*4F
$GPGGA,135818.000,4239.3271,N,2317.0299,E,1,0,,,M,,M,,*4A
$GPRMC,135818.000,A,4239.3271,N,2317.0299,E,9.87,,051117,,,A*4D
$GPGGA,135819.000,4239.3245,N,2317.0283,E,1,0,,,M,,M,,*47
$GPRMC,135819.000,A,4239.3245,N,2317.0283,E,10.56,,051117,,,A*74
$GPGGA,135820.000,4239.3217,N,2317.0267,E,1,0,,,M,,M,,*40
$GPRMC,135820.000,A,4239.3217,N,2317.0267,E,10.62,,051117,,,A*74
$GPGGA,135821.000,4239.3190,N,2317.0250,E,1,0,,,M,,M,,*49
$GPRMC,135821.000,A,4239.3190,N,2317.0250,E,10.54,,051117,,,A*78
$GPGGA,135822.000,4239.3164,N,2317.0231,E,1,0,,,M,,M,,*46
$GPRMC,135822.000,A,4239.3164,N,2317.0231,E,10.49,,051117,,,A*7B
$GPGGA,135823.000,4239.3139,N,2317.0211,E,1,0,,,M,,M,,*4D
$GPRMC,135823.000,A,4239.3139,N,2317.0211,E,10.19,,051117,,,A*75
$GPGGA,135824.000,4239.3113,N,2317.0190,E,1,0,,,M,,M,,*48
$GPRMC,135824.000,A,4239.3113,N,2317.0190,E,10.40,,051117,,,A*7C
$GPGGA,135825.000,4239.3088,N,2317.0169,E,1,0,,,M,,M,,*4C
$GPRMC,135825.000,A,4239.3088,N,2317.0169,E,10.41,,051117,,,A*79
$GPGGA,135826.000,4239.3064,N,2317.0147,E,1,0,,,M,,M,,*41
$GPRMC,135826.000,A,4239.3064,N,2317.0147,E,10.00,,051117,,,A*71
$GPGGA,135827.000,4239.3042,N,2317.0125,E,1,0,,,M,,M,,*40
$GPRMC,135827.000,A,4239.3042,N,2317.0125,E,9.62,,051117,,,A*4C
$GPGGA,135828.000,4239.3021,N,2317.0104,E,1,0,,,M,,M,,*49
$GPRMC,135828.000,A,4239.3021,N,2317.0104,E,9.17,,051117,,,A*47
$GPGGA,135829.000,4239.3000,N,2317.0084,E,1,0,,,M,,M,,*42
$GPRMC,135829.000,A,4239.3000,N,2317.0084,E,9.12,,051117,,,A*49
$GPGGA,135830.000,4239.2979,N,2317.0067,E,1,0,,,M,,M,,*41
$GPRMC,135830.000,A,4239.2979,N,2317.0067,E,8.80,,051117,,,A*40
$GPGGA,135831.000,4239.2959,N,2317.0049,E,1,0,,,M,,M,,*4E
$GPRMC,135831.000,A,4239.2959,N,2317.0049,E,8.47,,051117,,,A*44
$GPGGA,135832.000,4239.2938,N,2317.0033,E,1,0,,,M,,M,,*47
$GPRMC,135832.000,A,4239.2938,N,2317.0033,E,8.40,,051117,,,A*4A
$GPGGA,135833.000,4239.2918,N,2317.0016,E,1,0,,,M,,M,,*43
$GPRMC,135833.000,A,4239.2918,N,2317.0016,E,8.41,,051117,,,A*4F
$GPGGA,135834.000,4239.2897,N,2317.0000,E,1,0,,,M,,M,,*45
$GPRMC,135834.000,A,4239.2897,N,2317.0000,E,8.34,,051117,,,A*4B
$GPGGA,135835.000,4239.2877,N,2316.9984,E,1,0,,,M,,M,,*47
$GPRMC,135835.000,A,4239.2877,N,2316.9984,E,8.17,,051117,,,A*48
$GPGGA,135836.000,4239.2857,N,2316.9969,E,1,0,,,M,,M,,*45
$GPRMC,135836.000,A,4239.2857,N,2316.9969,E,8.16,,051117,,,A*4B
$GPGGA,135837.000,4239.2838,N,2316.9952,E,1,0,,,M,,M,,*45
$GPRMC,135837.000,A,4239.2838,N,2316.9952,E,8.17,,051117,,,A*4A
$GPGGA,135838.000,4239.2819,N,2316.9936,E,1,0,,,M,,M,,*4B
$GPRMC,135838.000,A,4239.2819,N,2316.9936,E,8.20,,051117,,,A*40
$GPGGA,135839.000,4239.2799,N,2316.9921,E,1,0,,,M,,M,,*4B
$GPRMC,135839.000,A,4239.2799,N,2316.9921,E,8.23,,051117,,,A*43
$GPGGA,135840.000,4239.2780,N,2316.9905,E,1,0,,,M,,M,,*4B
$GPRMC,135840.000,A,4239.2780,N,2316.9905,E,8.42,,051117,,,A*44
$GPGGA,135841.000,4239.2760,N,2316.9888,E,1,0,,,M,,M,,*40
$GPRMC,135841.000,A,4239.2760,N,2316.9888,E,8.41,,051117,,,A*4C
$GPGGA,135842.000,4239.2740,N,2316.9871,E,1,0,,,M,,M,,*47
$GPRMC,135842.000,A,4239.2740,N,2316.9871,E,8.35,,051117,,,A*48
$GPGGA,135843.000,4239.2721,N,2316.9855,E,1,0,,,M,,M,,*47
$GPRMC,135843.000,A,4239.2721,N,2316.9855,E,8.55,,051117,,,A*4E
$GPGGA,135844.000,4239.2702,N,2316.9837,E,1,0,,,M,,M,,*45
$GPRMC,135844.000,A,4239.2702,N,2316.9837,E,8.54,,051117,,,A*4D
$GPGGA,135845.000,4239.2682,N,2316.9821,E,1,0,,,M,,M,,*4A
$GPRMC,135845.000,A,4239.2682,N,2316.9821,E,8.47,,051117,,,A*40
$GPGGA,135846.000,4239.2662,N,2316.9806,E,1,0,,,M,,M,,*42
$GPRMC,135846.000,A,4239.2662,N,2316.9806,E,7.98,,051117,,,A*45
$GPGGA,135847.000,4239.2643,N,2316.9791,E,1,0,,,M,,M,,*41
$GPRMC,135847.000,A,4239.2643,N,2316.9791,E,7.96,,051117,,,A*48
$GPGGA,135848.000,4239.2623,N,2316.9776,E,1,0,,,M,,M,,*41
$GPRMC,135848.000,A,4239.2623,N,2316.9776,E,8.56,,051117,,,A*4B
$GPGGA,135849.000,4239.2602,N,2316.9757,E,1,0,,,M,,M,,*40
$GPRMC,135849.000,A,4239.2602,N,2316.9757,E,9.58,,051117,,,A*45
$GPGGA,135850.000,4239.2579,N,2316.9735,E,1,0,,,M,,M,,*43
$GPRMC,135850.000,A,4239.2579,N,2316.9735,E,10.26,,051117,,,A*77
$GPGGA,135851.000,4239.2556,N,2316.9712,E,1,0,,,M,,M,,*4A
$GPRMC,135851.000,A,4239.2556,N,2316.9712,E,10.29,,051117,,,A*71
$GPGGA,135852.000,4239.2532,N,2316.9693,E,1,0,,,M,,M,,*43
$GPRMC,135852.000,A,4239.2532,N,2316.9693,E,9.68,,051117,,,A*45
$GPGGA,135853.000,4239.2509,N,2316.9675,E,1,0,,,M,,M,,*42
$GPRMC,135853.000,A,4239.2509,N,2316.9675,E,9.27,,051117,,,A*4F
$GPGGA,135854.000,4239.2487,N,2316.9658,E,1,0,,,M,,M,,*4D
$GPRMC,135854.000,A,4239.2487,N,2316.9658,E,8.97,,051117,,,A*4A
$GPGGA,135855.000,4239.2467,N,2316.9641,E,1,0,,,M,,M,,*4A
$GPRMC,135855.000,A,4239.2467,N,2316.9641,E,8.58,,051117,,,A*4E
$GPGGA,135856.000,4239.2446,N,2316.9625,E,1,0,,,M,,M,,*48
$GPRMC,135856.000,A,4239.2446,N,2316.9625,E,8.26,,051117,,,A*45
$GPGGA,135857.000,4239.2426,N,2316.9611,E,1,0,,,M,,M,,*48
$GPRMC,135857.000,A,4239.2426,N,2316.9611,E,8.28,,051117,,,A*4B
$GPGGA,135858.000,4239.2403,N,2316.9597,E,1,0,,,M,,M,,*4D
$GPRMC,135858.000,A,4239.2403,N,2316.9597,E,9.34,,051117,,,A*42
$GPGGA,135859.000,4239.2380,N,2316.9582,E,1,0,,,M,,M,,*44
$GPRMC,135859.000,A,4239.2380,N,2316.9582,E,9.09,,051117,,,A*45
$GPGGA,135900.000,4239.2356,N,2316.9566,E,1,0,,,M,,M,,*48
$GPRMC,135900.000,A,4239.2356,N,2316.9566,E,9.50,,051117,,,A*45
$GPGGA,135901.000,4239.2333,N,2316.9548,E,1,0,,,M,,M,,*46
$GPRMC,135901.000,A,4239.2333,N,2316.9548,E,9.43,,051117,,,A*49
$GPGGA,135902.000,4239.2312,N,2316.9528,E,1,0,,,M,,M,,*40
$GPRMC,135902.000,A,4239.2312,N,2316.9528,E,9.18,,051117,,,A*41
$GPGGA,135903.000,4239.2290,N,2316.9509,E,1,0,,,M,,M,,*49
$GPRMC,135903.000,A,4239.2290,N,2316.9509,E,9.19,,051117,,,A*49
$GPGGA,135904.000,4239.2269,N,2316.9490,E,1,0,,,M,,M,,*49
$GPRMC,135904.000,A,4239.2269,N,2316.9490,E,8.94,,051117,,,A*4D
$GPGGA,135905.000,4239.2248,N,2316.9472,E,1,0,,,M,,M,,*47
$GPRMC,135905.000,A,4239.2248,N,2316.9472,E,8.74,,051117,,,A*4D
$GPGGA,135906.000,4239.2226,N,2316.9464,E,1,0,,,M,,M,,*4B
$GPRMC,135906.000,A,4239.2226,N,2316.9464,E,8.75,,051117,,,A*40
$GPGGA,135907.000,4239.2203,N,2316.9452,E,1,0,,,M,,M,,*48
$GPRMC,135907.000,A,4239.2203,N,2316.9452,E,8.51,,051117,,,A*45
$GPGGA,135908.000,4239.2181,N,2316.9434,E,1,0,,,M,,M,,*4E
$GPRMC,135908.000,A,4239.2181,N,2316.9434,E,8.86,,051117,,,A*49
$GPGGA,135909.000,4239.2161,N,2316.9416,E,1,0,,,M,,M,,*41
$GPRMC,135909.000,A,4239.2161,N,2316.9416,E,8.79,,051117,,,A*46
$GPGGA,135910.000,4239.2141,N,2316.9396,E,1,0,,,M,,M,,*44
$GPRMC,135910.000,A,4239.2141,N,2316.9396,E,8.34,,051117,,,A*4A
$GPGGA,135911.000,4239.2122,N,2316.9377,E,1,0,,,M,,M,,*4F
$GPRMC,135911.000,A,4239.2122,N,2316.9377,E,7.88,,051117,,,A*49
$GPGGA,135912.000,4239.2104,N,2316.9359,E,1,0,,,M,,M,,*44
$GPRMC,135912.000,A,4239.2104,N,2316.9359,E,7.92,,051117,,,A*49
$GPGGA,135913.000,4239.2086,N,2316.9341,E,1,0,,,M,,M,,*47
$GPRMC,135913.000,A,4239.2086,N,2316.9341,E,7.93,,051117,,,A*4B
$GPGGA,135914.000,4239.2068,N,2316.9323,E,1,0,,,M,,M,,*44
$GPRMC,135914.000,A,4239.2068,N,2316.9323,E,7.87,,051117,,,A*4D
$GPGGA,135915.000,4239.2051,N,2316.9305,E,1,0,,,M,,M,,*4B
$GPRMC,135915.000,A,4239.2051,N,2316.9305,E,7.46,,051117,,,A*4F
$GPGGA,135916.000,4239.2035,N,2316.9288,E,1,0,,,M,,M,,*4E
$GPRMC,135916.000,A,4239.2035,N,2316.9288,E,7.39,,051117,,,A*42
$GPGGA,135917.000,4239.2019,N,2316.9270,E,1,0,,,M,,M,,*46
$GPRMC,135917.000,A,4239.2019,N,2316.9270,E,7.21,,051117,,,A*43
$GPGGA,135918.000,4239.2004,N,2316.9254,E,1,0,,,M,,M,,*43
$GPRMC,135918.000,A,4239.2004,N,2316.9254,E,7.25,,051117,,,A*42
$GPGGA,135919.000,4239.1988,N,2316.9237,E,1,0,,,M,,M,,*49
$GPRMC,135919.000,A,4239.1988,N,2316.9237,E,7.27,,051117,,,A*4A
$GPGGA,135920.000,4239.1972,N,2316.9220,E,1,0,,,M,,M,,*40
$GPRMC,135920.000,A,4239.1972,N,2316.9220,E,7.51,,051117,,,A*42
$GPGGA,135921.000,4239.1955,N,2316.9201,E,1,0,,,M,,M,,*47
$GPRMC,135921.000,A,4239.1955,N,2316.9201,E,7.74,,051117,,,A*42
$GPGGA,135922.000,4239.1938,N,2316.9183,E,1,0,,,M,,M,,*46
$GPRMC,135922.000,A,4239.1938,N,2316.9183,E,7.71,,051117,,,A*46
$GPGGA,135923.000,4239.1921,N,2316.9165,E,1,0,,,M,,M,,*47
$GPRMC,135923.000,A,4239.1921,N,2316.9165,E,7.29,,051117,,,A*4A
$GPGGA,135924.000,4239.1904,N,2316.9147,E,1,0,,,M,,M,,*47
$GPRMC,135924.000,A,4239.1904,N,2316.9147,E,7.34,,051117,,,A*46
$GPGGA,135925.000,4239.1889,N,2316.9129,E,1,0,,,M,,M,,*4A
$GPRMC,135925.000,A,4239.1889,N,2316.9129,E,7.34,,051117,,,A*4B
$GPGGA,135926.000,4239.1873,N,2316.9112,E,1,0,,,M,,M,,*44
$GPRMC,135926.000,A,4239.1873,N,2316.9112,E,7.01,,051117,,,A*43
$GPGGA,135927.000,4239.1858,N,2316.9094,E,1,0,,,M,,M,,*43
$GPRMC,135927.000,A,4239.1858,N,2316.9094,E,7.06,,051117,,,A*43
$GPGGA,135928.000,4239.1843,N,2316.9077,E,1,0,,,M,,M,,*4B
$GPRMC,135928.000,A,4239.1843,N,2316.9077,E,7.24,,051117,,,A*4B
$GPGGA,135929.000,4239.1827,N,2316.9059,E,1,0,,,M,,M,,*44
$GPRMC,135929.000,A,4239.1827,N,2316.9059,E,7.24,,051117,,,A*44
$GPGGA,135930.000,4239.1812,N,2316.9041,E,1,0,,,M,,M,,*43
$GPRMC,135930.000,A,4239.1812,N,2316.9041,E,7.21,,051117,,,A*46
$GPGGA,135931.000,4239.1797,N,2316.9024,E,1,0,,,M,,M,,*43
$GPRMC,135931.000,A,4239.1797,N,2316.9024,E,7.17,,051117,,,A*43
$GPGGA,135932.000,4239.1784,N,2316.9007,E,1,0,,,M,,M,,*43
$GPRMC,135932.000,A,4239.1784,N,2316.9007,E,7.00,,051117,,,A*45
$GPGGA,135933.000,4239.1770,N,2316.8989,E,1,0,,,M,,M,,*47
$GPRMC,135933.000,A,4239.1770,N,2316.8989,E,6.98,,051117,,,A*41
$GPGGA,135934.000,4239.1756,N,2316.8972,E,1,0,,,M,,M,,*40
$GPRMC,135934.000,A,4239.1756,N,2316.8972,E,7.01,,051117,,,A*47
$GPGGA,135935.000,4239.1741,N,2316.8955,E,1,0,,,M,,M,,*42
$GPRMC,135935.000,A,4239.1741,N,2316.8955,E,6.99,,051117,,,A*45
$GPGGA,135936.000,4239.1726,N,2316.8938,E,1,0,,,M,,M,,*4B
$GPRMC,135936.000,A,4239.1726,N,2316.8938,E,6.98,,051117,,,A*4D
$GPGGA,135937.000,4239.1712,N,2316.8920,E,1,0,,,M,,M,,*44
$GPRMC,135937.000,A,4239.1712,N,2316.8920,E,7.00,,051117,,,A*42
$GPGGA,135938.000,4239.1697,N,2316.8903,E,1,0,,,M,,M,,*46
$GPRMC,135938.000,A,4239.1697,N,2316.8903,E,7.02,,051117,,,A*42
$GPGGA,135939.000,4239.1682,N,2316.8885,E,1,0,,,M,,M,,*4C
$GPRMC,135939.000,A,4239.1682,N,2316.8885,E,7.06,,051117,,,A*4C
$GPGGA,135940.000,4239.1668,N,2316.8867,E,1,0,,,M,,M,,*4A
$GPRMC,135940.000,A,4239.1668,N,2316.8867,E,7.07,,051117,,,A*4B
$GPGGA,135941.000,4239.1654,N,2316.8848,E,1,0,,,M,,M,,*49
$GPRMC,135941.000,A,4239.1654,N,2316.8848,E,7.06,,051117,,,A*49
$GPGGA,135942.000,4239.1640,N,2316.8830,E,1,0,,,M,,M,,*40
$GPRMC,135942.000,A,4239.1640,N,2316.8830,E,7.04,,051117,,,A*42
$GPGGA,135943.000,4239.1626,N,2316.8812,E,1,0,,,M,,M,,*41
$GPRMC,135943.000,A,4239.1626,N,2316.8812,E,7.02,,051117,,,A*45
$GPGGA,135944.000,4239.1612,N,2316.8793,E,1,0,,,M,,M,,*47
$GPRMC,135944.000,A,4239.1612,N,2316.8793,E,7.01,,051117,,,A*40
$GPGGA,135945.000,4239.1598,N,2316.8775,E,1,0,,,M,,M,,*4F
$GPRMC,135945.000,A,4239.1598,N,2316.8775,E,7.01,,051117,,,A*48
$GPGGA,135946.000,4239.1584,N,2316.8757,E,1,0,,,M,,M,,*41
$GPRMC,135946.000,A,4239.1584,N,2316.8757,E,6.99,,051117,,,A*46
$GPGGA,135947.000,4239.1571,N,2316.8739,E,1,0,,,M,,M,,*42
$GPRMC,135947.000,A,4239.1571,N,2316.8739,E,6.96,,051117,,,A*4A
$GPGGA,135948.000,4239.1557,N,2316.8720,E,1,0,,,M,,M,,*41
$GPRMC,135948.000,A,4239.1557,N,2316.8720,E,6.92,,051117,,,A*4D
$GPGGA,135949.000,4239.1544,N,2316.8702,E,1,0,,,M,,M,,*42
$GPRMC,135949.000,A,4239.1544,N,2316.8702,E,6.41,,051117,,,A*40
$GPGGA,135950.000,4239.1531,N,2316.8685,E,1,0,,,M,,M,,*46
$GPRMC,135950.000,A,4239.1531,N,2316.8685,E,6.46,,051117,,,A*43
$GPGGA,135951.000,4239.1519,N,2316.8668,E,1,0,,,M,,M,,*4E
$GPRMC,135951.000,A,4239.1519,N,2316.8668,E,6.41,,051117,,,A*4C
$GPGGA,135952.000,4239.1507,N,2316.8651,E,1,0,,,M,,M,,*48
$GPRMC,135952.000,A,4239.1507,N,2316.8651,E,6.38,,051117,,,A*44
$GPGGA,135953.000,4239.1495,N,2316.8634,E,1,0,,,M,,M,,*40
$GPRMC,135953.000,A,4239.1495,N,2316.8634,E,6.21,,051117,,,A*44
$GPGGA,135954.000,4239.1483,N,2316.8617,E,1,0,,,M,,M,,*41
$GPRMC,135954.000,A,4239.1483,N,2316.8617,E,6.26,,051117,,,A*42
$GPGGA,135955.000,4239.1471,N,2316.8600,E,1,0,,,M,,M,,*4B
$GPRMC,135955.000,A,4239.1471,N,2316.8600,E,6.27,,051117,,,A*49
$GPGGA,135956.000,4239.1459,N,2316.8584,E,1,0,,,M,,M,,*4D
$GPRMC,135956.000,A,4239.1459,N,2316.8584,E,6.27,,051117,,,A*4F
$GPGGA,135957.000,4239.1447,N,2316.8567,E,1,0,,,M,,M,,*4E
$GPRMC,135957.000,A,4239.1447,N,2316.8567,E,6.25,,051117,,,A*4E
$GPGGA,135958.000,4239.1436,N,2316.8549,E,1,0,,,M,,M,,*4B
$GPRMC,135958.000,A,4239.1436,N,2316.8549,E,6.19,,051117,,,A*44
$GPGGA,135959.000,4239.1428,N,2316.8529,E,1,0,,,M,,M,,*43
$GPRMC,135959.000,A,4239.1428,N,2316.8529,E,6.19,,051117,,,A*4C
$GPGGA,140000.000,4239.1425,N,2316.8507,E,1,0,,,M,,M,,*45
$GPRMC,140000.000,A,4239.1425,N,2316.8507,E,5.88,,051117,,,A*41
$GPGGA,140001.000,4239.1424,N,2316.8485,E,1,0,,,M,,M,,*4E
$GPRMC,140001.000,A,4239.1424,N,2316.8485,E,5.92,,051117,,,A*41
$GPGGA,140002.000,4239.1423,N,2316.8462,E,1,0,,,M,,M,,*43
$GPRMC,140002.000,A,4239.1423,N,2316.8462,E,6.32,,051117,,,A*45
$GPGGA,140003.000,4239.1420,N,2316.8439,E,1,0,,,M,,M,,*4F
$GPRMC,140003.000,A,4239.1420,N,2316.8439,E,6.56,,051117,,,A*4B
$GPGGA,140004.000,4239.1415,N,2316.8416,E,1,0,,,M,,M,,*43
$GPRMC,140004.000,A,4239.1415,N,2316.8416,E,6.59,,051117,,,A*48
$GPGGA,140005.000,4239.1413,N,2316.8393,E,1,0,,,M,,M,,*4E
$GPRMC,140005.000,A,4239.1413,N,2316.8393,E,6.23,,051117,,,A*48
$GPGGA,140006.000,4239.1412,N,2316.8369,E,1,0,,,M,,M,,*49
$GPRMC,140006.000,A,4239.1412,N,2316.8369,E,6.26,,051117,,,A*4A
$GPGGA,140007.000,4239.1409,N,2316.8346,E,1,0,,,M,,M,,*4F
$GPRMC,140007.000,A,4239.1409,N,2316.8346,E,6.56,,051117,,,A*4B
$GPGGA,140008.000,4239.1401,N,2316.8324,E,1,0,,,M,,M,,*4C
$GPRMC,140008.000,A,4239.1401,N,2316.8324,E,6.90,,051117,,,A*42
$GPGGA,140009.000,4239.1390,N,2316.8303,E,1,0,,,M,,M,,*47
$GPRMC,140009.000,A,4239.1390,N,2316.8303,E,6.42,,051117,,,A*46
$GPGGA,140010.000,4239.1380,N,2316.8285,E,1,0,,,M,,M,,*41
$GPRMC,140010.000,A,4239.1380,N,2316.8285,E,5.67,,051117,,,A*44
$GPGGA,140011.000,4239.1368,N,2316.8268,E,1,0,,,M,,M,,*45
$GPRMC,140011.000,A,4239.1368,N,2316.8268,E,6.06,,051117,,,A*44
$GPGGA,140012.000,4239.1356,N,2316.8250,E,1,0,,,M,,M,,*40
$GPRMC,140012.000,A,4239.1356,N,2316.8250,E,6.10,,051117,,,A*46
$GPGGA,140013.000,4239.1344,N,2316.8233,E,1,0,,,M,,M,,*47
$GPRMC,140013.000,A,4239.1344,N,2316.8233,E,6.09,,051117,,,A*49
$GPGGA,140014.000,4239.1333,N,2316.8215,E,1,0,,,M,,M,,*44
$GPRMC,140014.000,A,4239.1333,N,2316.8215,E,6.32,,051117,,,A*42
$GPGGA,140015.000,4239.1321,N,2316.8197,E,1,0,,,M,,M,,*4F
$GPRMC,140015.000,A,4239.1321,N,2316.8197,E,6.63,,051117,,,A*4D
$GPGGA,140016.000,4239.1309,N,2316.8177,E,1,0,,,M,,M,,*48
$GPRMC,140016.000,A,4239.1309,N,2316.8177,E,6.67,,051117,,,A*4E
$GPGGA,140017.000,4239.1297,N,2316.8157,E,1,0,,,M,,M,,*4D
$GPRMC,140017.000,A,4239.1297,N,2316.8157,E,6.65,,051117,,,A*49
$GPGGA,140018.000,4239.1284,N,2316.8139,E,1,0,,,M,,M,,*48
$GPRMC,140018.000,A,4239.1284,N,2316.8139,E,6.67,,051117,,,A*4E
$GPGGA,140019.000,4239.1271,N,2316.8121,E,1,0,,,M,,M,,*4A
$GPRMC,140019.000,A,4239.1271,N,2316.8121,E,6.67,,051117,,,A*4C
$GPGGA,140020.000,4239.1258,N,2316.8104,E,1,0,,,M,,M,,*4C
$GPRMC,140020.000,A,4239.1258,N,2316.8104,E,6.59,,051117,,,A*47
$GPGGA,140021.000,4239.1245,N,2316.8087,E,1,0,,,M,,M,,*4B
$GPRMC,140021.000,A,4239.1245,N,2316.8087,E,6.14,,051117,,,A*49
$GPGGA,140022.000,4239.1233,N,2316.8070,E,1,0,,,M,,M,,*41
$GPRMC,140022.000,A,4239.1233,N,2316.8070,E,6.14,,051117,,,A*43
$GPGGA,140023.000,4239.1221,N,2316.8055,E,1,0,,,M,,M,,*44
$GPRMC,140023.000,A,4239.1221,N,2316.8055,E,5.52,,051117,,,A*47
$GPGGA,140024.000,4239.1213,N,2316.8038,E,1,0,,,M,,M,,*49
$GPRMC,140024.000,A,4239.1213,N,2316.8038,E,5.15,,051117,,,A*49
$GPGGA,140025.000,4239.1205,N,2316.8021,E,1,0,,,M,,M,,*47
$GPRMC,140025.000,A,4239.1205,N,2316.8021,E,5.65,,051117,,,A*40
$GPGGA,140026.000,4239.1193,N,2316.8008,E,1,0,,,M,,M,,*43
$GPRMC,140026.000,A,4239.1193,N,2316.8008,E,5.69,,051117,,,A*48
$GPGGA,140027.000,4239.1179,N,2316.7996,E,1,0,,,M,,M,,*47
$GPRMC,140027.000,A,4239.1179,N,2316.7996,E,5.75,,051117,,,A*41
$GPGGA,140028.000,4239.1165,N,2316.7985,E,1,0,,,M,,M,,*47
$GPRMC,140028.000,A,4239.1165,N,2316.7985,E,5.91,,051117,,,A*4B
$GPGGA,140029.000,4239.1151,N,2316.7972,E,1,0,,,M,,M,,*49
$GPRMC,140029.000,A,4239.1151,N,2316.7972,E,5.60,,051117,,,A*4B
$GPGGA,140030.000,4239.1139,N,2316.7958,E,1,0,,,M,,M,,*47
$GPRMC,140030.000,A,4239.1139,N,2316.7958,E,5.52,,051117,,,A*44
$GPGGA,140031.000,4239.1126,N,2316.7946,E,1,0,,,M,,M,,*47
$GPRMC,140031.000,A,4239.1126,N,2316.7946,E,5.58,,051117,,,A*4E
$GPGGA,140032.000,4239.1113,N,2316.7933,E,1,0,,,M,,M,,*40
$GPRMC,140032.000,A,4239.1113,N,2316.7933,E,5.52,,051117,,,A*43
$GPGGA,140033.000,4239.1101,N,2316.7918,E,1,0,,,M,,M,,*4B
$GPRMC,140033.000,A,4239.1101,N,2316.7918,E,6.36,,051117,,,A*49
$GPGGA,140034.000,4239.1089,N,2316.7899,E,1,0,,,M,,M,,*45
$GPRMC,140034.000,A,4239.1089,N,2316.7899,E,6.02,,051117,,,A*40
$GPGGA,140035.000,4239.1077,N,2316.7880,E,1,0,,,M,,M,,*4D
$GPRMC,140035.000,A,4239.1077,N,2316.7880,E,6.29,,051117,,,A*41
$GPGGA,140036.000,4239.1066,N,2316.7860,E,1,0,,,M,,M,,*40
$GPRMC,140036.000,A,4239.1066,N,2316.7860,E,5.99,,051117,,,A*44
$GPGGA,140037.000,4239.1054,N,2316.7841,E,1,0,,,M,,M,,*43
$GPRMC,140037.000,A,4239.1054,N,2316.7841,E,6.92,,051117,,,A*4F
$GPGGA,140038.000,4239.1042,N,2316.7823,E,1,0,,,M,,M,,*4F
$GPRMC,140038.000,A,4239.1042,N,2316.7823,E,6.17,,051117,,,A*4E
$GPGGA,140039.000,4239.1030,N,2316.7804,E,1,0,,,M,,M,,*4E
$GPRMC,140039.000,A,4239.1030,N,2316.7804,E,6.64,,051117,,,A*4B
$GPGGA,140040.000,4239.1017,N,2316.7787,E,1,0,,,M,,M,,*41
$GPRMC,140040.000,A,4239.1017,N,2316.7787,E,6.39,,051117,,,A*4C
$GPGGA,140041.000,4239.1005,N,2316.7770,E,1,0,,,M,,M,,*4B
$GPRMC,140041.000,A,4239.1005,N,2316.7770,E,6.70,,051117,,,A*4B
$GPGGA,140042.000,4239.0992,N,2316.7751,E,1,0,,,M,,M,,*4D
$GPRMC,140042.000,A,4239.0992,N,2316.7751,E,6.46,,051117,,,A*48
$GPGGA,140043.000,4239.0980,N,2316.7734,E,1,0,,,M,,M,,*4C
$GPRMC,140043.000,A,4239.0980,N,2316.7734,E,6.47,,051117,,,A*48
$GPGGA,140044.000,4239.0967,N,2316.7718,E,1,0,,,M,,M,,*4C
$GPRMC,140044.000,A,4239.0967,N,2316.7718,E,5.98,,051117,,,A*49
$GPGGA,140045.000,4239.0953,N,2316.7707,E,1,0,,,M,,M,,*44
$GPRMC,140045.000,A,4239.0953,N,2316.7707,E,6.15,,051117,,,A*47
$GPGGA,140046.000,4239.0938,N,2316.7693,E,1,0,,,M,,M,,*46
$GPRMC,140046.000,A,4239.0938,N,2316.7693,E,6.44,,051117,,,A*41
$GPGGA,140047.000,4239.0922,N,2316.7678,E,1,0,,,M,,M,,*49
$GPRMC,140047.000,A,4239.0922,N,2316.7678,E,6.07,,051117,,,A*49
$GPGGA,140048.000,4239.0909,N,2316.7662,E,1,0,,,M,,M,,*44
$GPRMC,140048.000,A,4239.0909,N,2316.7662,E,6.06,,051117,,,A*45
$GPGGA,140049.000,4239.0898,N,2316.7645,E,1,0,,,M,,M,,*49
$GPRMC,140049.000,A,4239.0898,N,2316.7645,E,6.09,,051117,,,A*47
$GPGGA,140050.000,4239.0887,N,2316.7627,E,1,0,,,M,,M,,*4B
$GPRMC,140050.000,A,4239.0887,N,2316.7627,E,5.76,,051117,,,A*4E
$GPGGA,140051.000,4239.0877,N,2316.7612,E,1,0,,,M,,M,,*43
$GPRMC,140051.000,A,4239.0877,N,2316.7612,E,5.39,,051117,,,A*4D
$GPGGA,140052.000,4239.0866,N,2316.7598,E,1,0,,,M,,M,,*41
$GPRMC,140052.000,A,4239.0866,N,2316.7598,E,5.58,,051117,,,A*48
$GPGGA,140053.000,4239.0854,N,2316.7584,E,1,0,,,M,,M,,*4C
$GPRMC,140053.000,A,4239.0854,N,2316.7584,E,5.57,,051117,,,A*4A
$GPGGA,140054.000,4239.0841,N,2316.7573,E,1,0,,,M,,M,,*47
$GPRMC,140054.000,A,4239.0841,N,2316.7573,E,5.52,,051117,,,A*44
$GPGGA,140055.000,4239.0829,N,2316.7561,E,1,0,,,M,,M,,*4B
$GPRMC,140055.000,A,4239.0829,N,2316.7561,E,5.20,,051117,,,A*4D
$GPGGA,140056.000,4239.0817,N,2316.7547,E,1,0,,,M,,M,,*41
$GPRMC,140056.000,A,4239.0817,N,2316.7547,E,5.16,,051117,,,A*42
$GPGGA,140057.000,4239.0807,N,2316.7529,E,1,0,,,M,,M,,*49
$GPRMC,140057.000,A,4239.0807,N,2316.7529,E,6.32,,051117,,,A*4F
$GPGGA,140058.000,4239.0794,N,2316.7512,E,1,0,,,M,,M,,*4B
$GPRMC,140058.000,A,4239.0794,N,2316.7512,E,5.82,,051117,,,A*45
$GPGGA,140059.000,4239.0782,N,2316.7497,E,1,0,,,M,,M,,*41
$GPRMC,140059.000,A,4239.0782,N,2316.7497,E,5.53,,051117,,,A*43
$GPGGA,140100.000,4239.0771,N,2316.7482,E,1,0,,,M,,M,,*44
$GPRMC,140100.000,A,4239.0771,N,2316.7482,E,5.53,,051117,,,A*46
$GPGGA,140101.000,4239.0761,N,2316.7467,E,1,0,,,M,,M,,*4F
$GPRMC,140101.000,A,4239.0761,N,2316.7467,E,5.20,,051117,,,A*49
$GPGGA,140102.000,4239.0750,N,2316.7454,E,1,0,,,M,,M,,*4E
$GPRMC,140102.000,A,4239.0750,N,2316.7454,E,5.22,,051117,,,A*4A
$GPGGA,140103.000,4239.0739,N,2316.7440,E,1,0,,,M,,M,,*45
$GPRMC,140103.000,A,4239.0739,N,2316.7440,E,5.28,,051117,,,A*4B
$GPGGA,140104.000,4239.0729,N,2316.7424,E,1,0,,,M,,M,,*41
$GPRMC,140104.000,A,4239.0729,N,2316.7424,E,5.49,,051117,,,A*48
$GPGGA,140105.000,4239.0719,N,2316.7409,E,1,0,,,M,,M,,*4C
$GPRMC,140105.000,A,4239.0719,N,2316.7409,E,5.73,,051117,,,A*4C
$GPGGA,140106.000,4239.0709,N,2316.7393,E,1,0,,,M,,M,,*4A
$GPRMC,140106.000,A,4239.0709,N,2316.7393,E,5.30,,051117,,,A*4D
$GPGGA,140107.000,4239.0697,N,2316.7379,E,1,0,,,M,,M,,*49
$GPRMC,140107.000,A,4239.0697,N,2316.7379,E,5.49,,051117,,,A*40
$GPGGA,140108.000,4239.0684,N,2316.7364,E,1,0,,,M,,M,,*48
$GPRMC,140108.000,A,4239.0684,N,2316.7364,E,5.73,,051117,,,A*48
$GPGGA,140109.000,4239.0669,N,2316.7349,E,1,0,,,M,,M,,*45
$GPRMC,140109.000,A,4239.0669,N,2316.7349,E,5.77,,051117,,,A*41
$GPGGA,140110.000,4239.0658,N,2316.7333,E,1,0,,,M,,M,,*42
$GPRMC,140110.000,A,4239.0658,N,2316.7333,E,5.82,,051117,,,A*4C
$GPGGA,140111.000,4239.0647,N,2316.7319,E,1,0,,,M,,M,,*45
$GPRMC,140111.000,A,4239.0647,N,2316.7319,E,5.60,,051117,,,A*47
$GPGGA,140112.000,4239.0635,N,2316.7305,E,1,0,,,M,,M,,*4E
$GPRMC,140112.000,A,4239.0635,N,2316.7305,E,5.59,,051117,,,A*46
$GPGGA,140113.000,4239.0625,N,2316.7290,E,1,0,,,M,,M,,*43
$GPRMC,140113.000,A,4239.0625,N,2316.7290,E,5.61,,051117,,,A*40
$GPGGA,140114.000,4239.0615,N,2316.7274,E,1,0,,,M,,M,,*4D
$GPRMC,140114.000,A,4239.0615,N,2316.7274,E,5.58,,051117,,,A*44
$GPGGA,140115.000,4239.0606,N,2316.7258,E,1,0,,,M,,M,,*40
$GPRMC,140115.000,A,4239.0606,N,2316.7258,E,5.22,,051117,,,A*44
$GPGGA,140116.000,4239.0596,N,2316.7242,E,1,0,,,M,,M,,*42
$GPRMC,140116.000,A,4239.0596,N,2316.7242,E,5.42,,051117,,,A*40
$GPGGA,140117.000,4239.0585,N,2316.7228,E,1,0,,,M,,M,,*4D
$GPRMC,140117.000,A,4239.0585,N,2316.7228,E,5.48,,051117,,,A*45
$GPGGA,140118.000,4239.0574,N,2316.7214,E,1,0,,,M,,M,,*43
$GPRMC,140118.000,A,4239.0574,N,2316.7214,E,5.13,,051117,,,A*45
$GPGGA,140119.000,4239.0563,N,2316.7200,E,1,0,,,M,,M,,*41
$GPRMC,140119.000,A,4239.0563,N,2316.7200,E,5.49,,051117,,,A*48
$GPGGA,140120.000,4239.0554,N,2316.7185,E,1,0,,,M,,M,,*41
$GPRMC,140120.000,A,4239.0554,N,2316.7185,E,5.17,,051117,,,A*43
$GPGGA,140121.000,4239.0545,N,2316.7170,E,1,0,,,M,,M,,*4A
$GPRMC,140121.000,A,4239.0545,N,2316.7170,E,5.39,,051117,,,A*44
$GPGGA,140122.000,4239.0535,N,2316.7154,E,1,0,,,M,,M,,*48
$GPRMC,140122.000,A,4239.0535,N,2316.7154,E,5.37,,051117,,,A*48
$GPGGA,140123.000,4239.0526,N,2316.7139,E,1,0,,,M,,M,,*40
$GPRMC,140123.000,A,4239.0526,N,2316.7139,E,5.37,,051117,,,A*40
$GPGGA,140124.000,4239.0517,N,2316.7124,E,1,0,,,M,,M,,*49
$GPRMC,140124.000,A,4239.0517,N,2316.7124,E,5.38,,051117,,,A*46
$GPGGA,140125.000,4239.0506,N,2316.7108,E,1,0,,,M,,M,,*46
$GPRMC,140125.000,A,4239.0506,N,2316.7108,E,5.17,,051117,,,A*44
$GPGGA,140126.000,4239.0498,N,2316.7094,E,1,0,,,M,,M,,*47
$GPRMC,140126.000,A,4239.0498,N,2316.7094,E,5.10,,051117,,,A*42
$GPGGA,140127.000,4239.0489,N,2316.7081,E,1,0,,,M,,M,,*42
$GPRMC,140127.000,A,4239.0489,N,2316.7081,E,4.89,,051117,,,A*46
$GPGGA,140128.000,4239.0480,N,2316.7067,E,1,0,,,M,,M,,*4C
$GPRMC,140128.000,A,4239.0480,N,2316.7067,E,4.83,,051117,,,A*42
$GPGGA,140129.000,4239.0472,N,2316.7053,E,1,0,,,M,,M,,*47
$GPRMC,140129.000,A,4239.0472,N,2316.7053,E,4.83,,051117,,,A*49
$GPGGA,140130.000,4239.0464,N,2316.7039,E,1,0,,,M,,M,,*44
$GPRMC,140130.000,A,4239.0464,N,2316.7039,E,5.09,,051117,,,A*49
$GPGGA,140131.000,4239.0454,N,2316.7025,E,1,0,,,M,,M,,*4B
$GPRMC,140131.000,A,4239.0454,N,2316.7025,E,5.31,,051117,,,A*4D
$GPGGA,140132.000,4239.0442,N,2316.7010,E,1,0,,,M,,M,,*49
$GPRMC,140132.000,A,4239.0442,N,2316.7010,E,5.57,,051117,,,A*4F
$GPGGA,140133.000,4239.0433,N,2316.6995,E,1,0,,,M,,M,,*4B
$GPRMC,140133.000,A,4239.0433,N,2316.6995,E,5.29,,051117,,,A*44
$GPGGA,140134.000,4239.0425,N,2316.6979,E,1,0,,,M,,M,,*49
$GPRMC,140134.000,A,4239.0425,N,2316.6979,E,5.33,,051117,,,A*4D
$GPGGA,140135.000,4239.0416,N,2316.6964,E,1,0,,,M,,M,,*44
$GPRMC,140135.000,A,4239.0416,N,2316.6964,E,5.04,,051117,,,A*44
$GPGGA,140136.000,4239.0406,N,2316.6950,E,1,0,,,M,,M,,*41
$GPRMC,140136.000,A,4239.0406,N,2316.6950,E,5.04,,051117,,,A*41
$GPGGA,140137.000,4239.0396,N,2316.6935,E,1,0,,,M,,M,,*4D
$GPRMC,140137.000,A,4239.0396,N,2316.6935,E,5.40,,051117,,,A*4D
$GPGGA,140138.000,4239.0387,N,2316.6920,E,1,0,,,M,,M,,*46
$GPRMC,140138.000,A,4239.0387,N,2316.6920,E,5.42,,051117,,,A*44
$GPGGA,140139.000,4239.0377,N,2316.6904,E,1,0,,,M,,M,,*4E
$GPRMC,140139.000,A,4239.0377,N,2316.6904,E,5.44,,051117,,,A*4A
$GPGGA,140140.000,4239.0366,N,2316.6889,E,1,0,,,M,,M,,*44
$GPRMC,140140.000,A,4239.0366,N,2316.6889,E,5.43,,051117,,,A*47
$GPGGA,140141.000,4239.0356,N,2316.6874,E,1,0,,,M,,M,,*44
$GPRMC,140141.000,A,4239.0356,N,2316.6874,E,5.43,,051117,,,A*47
$GPGGA,140142.000,4239.0346,N,2316.6859,E,1,0,,,M,,M,,*49
$GPRMC,140142.000,A,4239.0346,N,2316.6859,E,5.42,,051117,,,A*4B
$GPGGA,140143.000,4239.0337,N,2316.6843,E,1,0,,,M,,M,,*45
$GPRMC,140143.000,A,4239.0337,N,2316.6843,E,5.40,,051117,,,A*45
$GPGGA,140144.000,4239.0327,N,2316.6827,E,1,0,,,M,,M,,*41
$GPRMC,140144.000,A,4239.0327,N,2316.6827,E,5.37,,051117,,,A*41
$GPGGA,140145.000,4239.0318,N,2316.6811,E,1,0,,,M,,M,,*49
$GPRMC,140145.000,A,4239.0318,N,2316.6811,E,5.35,,051117,,,A*4B
$GPGGA,140146.000,4239.0310,N,2316.6796,E,1,0,,,M,,M,,*42
$GPRMC,140146.000,A,4239.0310,N,2316.6796,E,5.11,,051117,,,A*46
$GPGGA,140147.000,4239.0301,N,2316.6781,E,1,0,,,M,,M,,*45
$GPRMC,140147.000,A,4239.0301,N,2316.6781,E,5.39,,051117,,,A*4B
$GPGGA,140148.000,4239.0291,N,2316.6766,E,1,0,,,M,,M,,*4B
$GPRMC,140148.000,A,4239.0291,N,2316.6766,E,5.39,,051117,,,A*45
$GPGGA,140149.000,4239.0281,N,2316.6751,E,1,0,,,M,,M,,*4F
$GPRMC,140149.000,A,4239.0281,N,2316.6751,E,5.15,,051117,,,A*4F
$GPGGA,140150.000,4239.0271,N,2316.6736,E,1,0,,,M,,M,,*49
$GPRMC,140150.000,A,4239.0271,N,2316.6736,E,5.09,,051117,,,A*44
$GPGGA,140151.000,4239.0263,N,2316.6721,E,1,0,,,M,,M,,*4D
$GPRMC,140151.000,A,4239.0263,N,2316.6721,E,5.05,,051117,,,A*4C
$GPGGA,140152.000,4239.0254,N,2316.6706,E,1,0,,,M,,M,,*4F
$GPRMC,140152.000,A,4239.0254,N,2316.6706,E,5.09,,051117,,,A*42
$GPGGA,140153.000,4239.0246,N,2316.6690,E,1,0,,,M,,M,,*43
$GPRMC,140153.000,A,4239.0246,N,2316.6690,E,5.15,,051117,,,A*43
$GPGGA,140154.000,4239.0237,N,2316.6674,E,1,0,,,M,,M,,*48
$GPRMC,140154.000,A,4239.0237,N,2316.6674,E,5.14,,051117,,,A*49
$GPGGA,140155.000,4239.0228,N,2316.6657,E,1,0,,,M,,M,,*46
$GPRMC,140155.000,A,4239.0228,N,2316.6657,E,5.32,,051117,,,A*43
$GPGGA,140156.000,4239.0219,N,2316.6641,E,1,0,,,M,,M,,*40
$GPRMC,140156.000,A,4239.0219,N,2316.6641,E,5.36,,051117,,,A*41
$GPGGA,140157.000,4239.0209,N,2316.6626,E,1,0,,,M,,M,,*41
$GPRMC,140157.000,A,4239.0209,N,2316.6626,E,5.35,,051117,,,A*43
$GPGGA,140158.000,4239.0200,N,2316.6610,E,1,0,,,M,,M,,*42
$GPRMC,140158.000,A,4239.0200,N,2316.6610,E,5.33,,051117,,,A*46
$GPGGA,140159.000,4239.0191,N,2316.6595,E,1,0,,,M,,M,,*46
$GPRMC,140159.000,A,4239.0191,N,2316.6595,E,5.33,,051117,,,A*42
$GPGGA,140200.000,4239.0182,N,2316.6579,E,1,0,,,M,,M,,*49
$GPRMC,140200.000,A,4239.0182,N,2316.6579,E,5.33,,051117,,,A*4D
$GPGGA,140201.000,4239.0173,N,2316.6563,E,1,0,,,M,,M,,*4D
$GPRMC,140201.000,A,4239.0173,N,2316.6563,E,5.57,,051117,,,A*4B
$GPGGA,140202.000,4239.0164,N,2316.6545,E,1,0,,,M,,M,,*4C
$GPRMC,140202.000,A,4239.0164,N,2316.6545,E,5.63,,051117,,,A*4D
$GPGGA,140203.000,4239.0154,N,2316.6529,E,1,0,,,M,,M,,*44
$GPRMC,140203.000,A,4239.0154,N,2316.6529,E,5.68,,051117,,,A*4E
$GPGGA,140204.000,4239.0144,N,2316.6514,E,1,0,,,M,,M,,*4C
$GPRMC,140204.000,A,4239.0144,N,2316.6514,E,5.42,,051117,,,A*4E
$GPGGA,140205.000,4239.0134,N,2316.6498,E,1,0,,,M,,M,,*4F
$GPRMC,140205.000,A,4239.0134,N,2316.6498,E,5.49,,051117,,,A*46
$GPGGA,140206.000,4239.0121,N,2316.6481,E,1,0,,,M,,M,,*40
$GPRMC,140206.000,A,4239.0121,N,2316.6481,E,6.16,,051117,,,A*40
$GPGGA,140207.000,4239.0111,N,2316.6464,E,1,0,,,M,,M,,*49
$GPRMC,140207.000,A,4239.0111,N,2316.6464,E,5.87,,051117,,,A*42
$GPGGA,140208.000,4239.0100,N,2316.6448,E,1,0,,,M,,M,,*48
$GPRMC,140208.000,A,4239.0100,N,2316.6448,E,5.86,,051117,,,A*42
$GPGGA,140209.000,4239.0090,N,2316.6431,E,1,0,,,M,,M,,*4F
$GPRMC,140209.000,A,4239.0090,N,2316.6431,E,5.82,,051117,,,A*41
$GPGGA,140210.000,4239.0080,N,2316.6415,E,1,0,,,M,,M,,*40
$GPRMC,140210.000,A,4239.0080,N,2316.6415,E,5.74,,051117,,,A*47
$GPGGA,140211.000,4239.0070,N,2316.6398,E,1,0,,,M,,M,,*4C
$GPRMC,140211.000,A,4239.0070,N,2316.6398,E,5.46,,051117,,,A*4A
$GPGGA,140212.000,4239.0061,N,2316.6382,E,1,0,,,M,,M,,*44
$GPRMC,140212.000,A,4239.0061,N,2316.6382,E,5.83,,051117,,,A*4B
$GPGGA,140213.000,4239.0051,N,2316.6365,E,1,0,,,M,,M,,*4F
$GPRMC,140213.000,A,4239.0051,N,2316.6365,E,5.75,,051117,,,A*49
$GPGGA,140214.000,4239.0042,N,2316.6346,E,1,0,,,M,,M,,*4B
$GPRMC,140214.000,A,4239.0042,N,2316.6346,E,5.79,,051117,,,A*41
$GPGGA,140215.000,4239.0034,N,2316.6326,E,1,0,,,M,,M,,*4D
$GPRMC,140215.000,A,4239.0034,N,2316.6326,E,6.19,,051117,,,A*42
$GPGGA,140216.000,4239.0026,N,2316.6307,E,1,0,,,M,,M,,*4E
$GPRMC,140216.000,A,4239.0026,N,2316.6307,E,6.20,,051117,,,A*4B
$GPGGA,140217.000,4239.0017,N,2316.6288,E,1,0,,,M,,M,,*4B
$GPRMC,140217.000,A,4239.0017,N,2316.6288,E,6.15,,051117,,,A*48
$GPGGA,140218.000,4239.0008,N,2316.6269,E,1,0,,,M,,M,,*45
$GPRMC,140218.000,A,4239.0008,N,2316.6269,E,5.92,,051117,,,A*4A
$GPGGA,140219.000,4239.0001,N,2316.6250,E,1,0,,,M,,M,,*47
$GPRMC,140219.000,A,4239.0001,N,2316.6250,E,5.74,,051117,,,A*40
$GPGGA,140220.000,4238.9994,N,2316.6231,E,1,0,,,M,,M,,*47
$GPRMC,140220.000,A,4238.9994,N,2316.6231,E,5.93,,051117,,,A*49
$GPGGA,140221.000,4238.9983,N,2316.6212,E,1,0,,,M,,M,,*41
$GPRMC,140221.000,A,4238.9983,N,2316.6212,E,5.96,,051117,,,A*4A
$GPGGA,140222.000,4238.9974,N,2316.6194,E,1,0,,,M,,M,,*47
$GPRMC,140222.000,A,4238.9974,N,2316.6194,E,5.98,,051117,,,A*42
$GPGGA,140223.000,4238.9965,N,2316.6176,E,1,0,,,M,,M,,*4A
$GPRMC,140223.000,A,4238.9965,N,2316.6176,E,5.93,,051117,,,A*44
$GPGGA,140224.000,4238.9957,N,2316.6157,E,1,0,,,M,,M,,*4F
$GPRMC,140224.000,A,4238.9957,N,2316.6157,E,5.73,,051117,,,A*4F
$GPGGA,140225.000,4238.9949,N,2316.6138,E,1,0,,,M,,M,,*48
$GPRMC,140225.000,A,4238.9949,N,2316.6138,E,6.14,,051117,,,A*4A
$GPGGA,140226.000,4238.9941,N,2316.6119,E,1,0,,,M,,M,,*40
$GPRMC,140226.000,A,4238.9941,N,2316.6119,E,6.09,,051117,,,A*4E
$GPGGA,140227.000,4238.9932,N,2316.6100,E,1,0,,,M,,M,,*4D
$GPRMC,140227.000,A,4238.9932,N,2316.6100,E,5.91,,051117,,,A*41
$GPGGA,140228.000,4238.9918,N,2316.6081,E,1,0,,,M,,M,,*42
$GPRMC,140228.000,A,4238.9918,N,2316.6081,E,6.08,,051117,,,A*4D
$GPGGA,140229.000,4238.9907,N,2316.6062,E,1,0,,,M,,M,,*40
$GPRMC,140229.000,A,4238.9907,N,2316.6062,E,6.13,,051117,,,A*45
$GPGGA,140230.000,4238.9899,N,2316.6044,E,1,0,,,M,,M,,*4A
$GPRMC,140230.000,A,4238.9899,N,2316.6044,E,6.16,,051117,,,A*4A
$GPGGA,140231.000,4238.9890,N,2316.6025,E,1,0,,,M,,M,,*45
$GPRMC,140231.000,A,4238.9890,N,2316.6025,E,5.90,,051117,,,A*48
$GPGGA,140232.000,4238.9881,N,2316.6005,E,1,0,,,M,,M,,*44
$GPRMC,140232.000,A,4238.9881,N,2316.6005,E,6.17,,051117,,,A*45
$GPGGA,140233.000,4238.9874,N,2316.5985,E,1,0,,,M,,M,,*4D
$GPRMC,140233.000,A,4238.9874,N,2316.5985,E,5.99,,051117,,,A*49
$GPGGA,140234.000,4238.9866,N,2316.5966,E,1,0,,,M,,M,,*44
$GPRMC,140234.000,A,4238.9866,N,2316.5966,E,5.79,,051117,,,A*4E
$GPGGA,140235.000,4238.9859,N,2316.5947,E,1,0,,,M,,M,,*4A
$GPRMC,140235.000,A,4238.9859,N,2316.5947,E,5.75,,051117,,,A*4C
$GPGGA,140236.000,4238.9850,N,2316.5929,E,1,0,,,M,,M,,*48
$GPRMC,140236.000,A,4238.9850,N,2316.5929,E,5.70,,051117,,,A*4B
$GPGGA,140237.000,4238.9840,N,2316.5910,E,1,0,,,M,,M,,*42
$GPRMC,140237.000,A,4238.9840,N,2316.5910,E,6.02,,051117,,,A*47
$GPGGA,140238.000,4238.9831,N,2316.5890,E,1,0,,,M,,M,,*42
$GPRMC,140238.000,A,4238.9831,N,2316.5890,E,6.51,,051117,,,A*41
$GPGGA,140239.000,4238.9819,N,2316.5870,E,1,0,,,M,,M,,*47
$GPRMC,140239.000,A,4238.9819,N,2316.5870,E,5.98,,051117,,,A*42
$GPGGA,140240.000,4238.9812,N,2316.5849,E,1,0,,,M,,M,,*48
$GPRMC,140240.000,A,4238.9812,N,2316.5849,E,6.16,,051117,,,A*48
$GPGGA,140241.000,4238.9806,N,2316.5827,E,1,0,,,M,,M,,*44
$GPRMC,140241.000,A,4238.9806,N,2316.5827,E,5.79,,051117,,,A*4E
$GPGGA,140242.000,4238.9800,N,2316.5807,E,1,0,,,M,,M,,*43
$GPRMC,140242.000,A,4238.9800,N,2316.5807,E,5.08,,051117,,,A*4F
$GPGGA,140243.000,4238.9792,N,2316.5791,E,1,0,,,M,,M,,*46
$GPRMC,140243.000,A,4238.9792,N,2316.5791,E,5.53,,051117,,,A*44
$GPGGA,140244.000,4238.9785,N,2316.5771,E,1,0,,,M,,M,,*49
$GPRMC,140244.000,A,4238.9785,N,2316.5771,E,5.90,,051117,,,A*44
$GPGGA,140245.000,4238.9778,N,2316.5751,E,1,0,,,M,,M,,*48
$GPRMC,140245.000,A,4238.9778,N,2316.5751,E,6.27,,051117,,,A*4A
$GPGGA,140246.000,4238.9769,N,2316.5730,E,1,0,,,M,,M,,*4C
$GPRMC,140246.000,A,4238.9769,N,2316.5730,E,6.26,,051117,,,A*4F
$GPGGA,140247.000,4238.9762,N,2316.5710,E,1,0,,,M,,M,,*44
$GPRMC,140247.000,A,4238.9762,N,2316.5710,E,5.80,,051117,,,A*48
$GPGGA,140248.000,4238.9754,N,2316.5689,E,1,0,,,M,,M,,*4F
$GPRMC,140248.000,A,4238.9754,N,2316.5689,E,6.22,,051117,,,A*48
$GPGGA,140249.000,4238.9741,N,2316.5667,E,1,0,,,M,,M,,*4A
$GPRMC,140249.000,A,4238.9741,N,2316.5667,E,6.27,,051117,,,A*48
$GPGGA,140250.000,4238.9731,N,2316.5647,E,1,0,,,M,,M,,*47
$GPRMC,140250.000,A,4238.9731,N,2316.5647,E,6.20,,051117,,,A*42
$GPGGA,140251.000,4238.9721,N,2316.5628,E,1,0,,,M,,M,,*4E
$GPRMC,140251.000,A,4238.9721,N,2316.5628,E,6.18,,051117,,,A*40
$GPGGA,140252.000,4238.9712,N,2316.5609,E,1,0,,,M,,M,,*4E
$GPRMC,140252.000,A,4238.9712,N,2316.5609,E,6.13,,051117,,,A*4B
$GPGGA,140253.000,4238.9704,N,2316.5589,E,1,0,,,M,,M,,*43
$GPRMC,140253.000,A,4238.9704,N,2316.5589,E,6.10,,051117,,,A*45
$GPGGA,140254.000,4238.9698,N,2316.5570,E,1,0,,,M,,M,,*46
$GPRMC,140254.000,A,4238.9698,N,2316.5570,E,5.72,,051117,,,A*47
$GPGGA,140255.000,4238.9692,N,2316.5550,E,1,0,,,M,,M,,*4F
$GPRMC,140255.000,A,4238.9692,N,2316.5550,E,5.66,,051117,,,A*4B
$GPGGA,140256.000,4238.9687,N,2316.5530,E,1,0,,,M,,M,,*4E
$GPRMC,140256.000,A,4238.9687,N,2316.5530,E,5.99,,051117,,,A*4A
$GPGGA,140257.000,4238.9680,N,2316.5509,E,1,0,,,M,,M,,*42
$GPRMC,140257.000,A,4238.9680,N,2316.5509,E,6.03,,051117,,,A*46
$GPGGA,140258.000,4238.9675,N,2316.5488,E,1,0,,,M,,M,,*4F
$GPRMC,140258.000,A,4238.9675,N,2316.5488,E,5.46,,051117,,,A*49
$GPGGA,140259.000,4238.9669,N,2316.5469,E,1,0,,,M,,M,,*4C
$GPRMC,140259.000,A,4238.9669,N,2316.5469,E,5.76,,051117,,,A*49
$GPGGA,140300.000,4238.9664,N,2316.5448,E,1,0,,,M,,M,,*4F
$GPRMC,140300.000,A,4238.9664,N,2316.5448,E,5.77,,051117,,,A*4B
$GPGGA,140301.000,4238.9660,N,2316.5427,E,1,0,,,M,,M,,*43
$GPRMC,140301.000,A,4238.9660,N,2316.5427,E,5.79,,051117,,,A*49
$GPGGA,140302.000,4238.9656,N,2316.5406,E,1,0,,,M,,M,,*46
$GPRMC,140302.000,A,4238.9656,N,2316.5406,E,5.74,,051117,,,A*41
$GPGGA,140303.000,4238.9652,N,2316.5385,E,1,0,,,M,,M,,*4F
$GPRMC,140303.000,A,4238.9652,N,2316.5385,E,5.72,,051117,,,A*4E
$GPGGA,140304.000,4238.9648,N,2316.5365,E,1,0,,,M,,M,,*4D
$GPRMC,140304.000,A,4238.9648,N,2316.5365,E,5.42,,051117,,,A*4F
$GPGGA,140305.000,4238.9644,N,2316.5342,E,1,0,,,M,,M,,*45
$GPRMC,140305.000,A,4238.9644,N,2316.5342,E,6.05,,051117,,,A*47
$GPGGA,140306.000,4238.9639,N,2316.5320,E,1,0,,,M,,M,,*48
$GPRMC,140306.000,A,4238.9639,N,2316.5320,E,5.98,,051117,,,A*4D
$GPGGA,140307.000,4238.9634,N,2316.5299,E,1,0,,,M,,M,,*47
$GPRMC,140307.000,A,4238.9634,N,2316.5299,E,5.51,,051117,,,A*47
$GPGGA,140308.000,4238.9626,N,2316.5280,E,1,0,,,M,,M,,*43
$GPRMC,140308.000,A,4238.9626,N,2316.5280,E,5.78,,051117,,,A*48
$GPGGA,140309.000,4238.9616,N,2316.5260,E,1,0,,,M,,M,,*4F
$GPRMC,140309.000,A,4238.9616,N,2316.5260,E,5.10,,051117,,,A*4A
$GPGGA,140310.000,4238.9607,N,2316.5243,E,1,0,,,M,,M,,*46
$GPRMC,140310.000,A,4238.9607,N,2316.5243,E,5.10,,051117,,,A*43
$GPGGA,140311.000,4238.9599,N,2316.5225,E,1,0,,,M,,M,,*43
$GPRMC,140311.000,A,4238.9599,N,2316.5225,E,5.29,,051117,,,A*4C
$GPGGA,140312.000,4238.9595,N,2316.5206,E,1,0,,,M,,M,,*4D
$GPRMC,140312.000,A,4238.9595,N,2316.5206,E,5.29,,051117,,,A*42
$GPGGA,140313.000,4238.9591,N,2316.5186,E,1,0,,,M,,M,,*43
$GPRMC,140313.000,A,4238.9591,N,2316.5186,E,5.46,,051117,,,A*45
$GPGGA,140314.000,4238.9588,N,2316.5166,E,1,0,,,M,,M,,*42
$GPRMC,140314.000,A,4238.9588,N,2316.5166,E,5.53,,051117,,,A*40
$GPGGA,140315.000,4238.9585,N,2316.5145,E,1,0,,,M,,M,,*4F
$GPRMC,140315.000,A,4238.9585,N,2316.5145,E,5.73,,051117,,,A*4F
$GPGGA,140316.000,4238.9580,N,2316.5124,E,1,0,,,M,,M,,*4E
$GPRMC,140316.000,A,4238.9580,N,2316.5124,E,5.79,,051117,,,A*44
$GPGGA,140317.000,4238.9575,N,2316.5103,E,1,0,,,M,,M,,*40
$GPRMC,140317.000,A,4238.9575,N,2316.5103,E,5.77,,051117,,,A*44
$GPGGA,140318.000,4238.9571,N,2316.5082,E,1,0,,,M,,M,,*43
$GPRMC,140318.000,A,4238.9571,N,2316.5082,E,5.75,,051117,,,A*45
$GPGGA,140319.000,4238.9568,N,2316.5061,E,1,0,,,M,,M,,*47
$GPRMC,140319.000,A,4238.9568,N,2316.5061,E,5.76,,051117,,,A*42
$GPGGA,140320.000,4238.9565,N,2316.5041,E,1,0,,,M,,M,,*42
$GPRMC,140320.000,A,4238.9565,N,2316.5041,E,5.72,,051117,,,A*43
$GPGGA,140321.000,4238.9561,N,2316.5020,E,1,0,,,M,,M,,*40
$GPRMC,140321.000,A,4238.9561,N,2316.5020,E,5.72,,051117,,,A*41
$GPGGA,140322.000,4238.9558,N,2316.4999,E,1,0,,,M,,M,,*43
$GPRMC,140322.000,A,4238.9558,N,2316.4999,E,5.70,,051117,,,A*40
$GPGGA,140323.000,4238.9554,N,2316.4978,E,1,0,,,M,,M,,*41
$GPRMC,140323.000,A,4238.9554,N,2316.4978,E,5.69,,051117,,,A*4A
$GPGGA,140324.000,4238.9550,N,2316.4958,E,1,0,,,M,,M,,*40
$GPRMC,140324.000,A,4238.9550,N,2316.4958,E,5.66,,051117,,,A*44
$GPGGA,140325.000,4238.9544,N,2316.4937,E,1,0,,,M,,M,,*4D
$GPRMC,140325.000,A,4238.9544,N,2316.4937,E,5.63,,051117,,,A*4C
$GPGGA,140326.000,4238.9539,N,2316.4918,E,1,0,,,M,,M,,*49
$GPRMC,140326.000,A,4238.9539,N,2316.4918,E,5.63,,051117,,,A*48
$GPGGA,140327.000,4238.9534,N,2316.4897,E,1,0,,,M,,M,,*43
$GPRMC,140327.000,A,4238.9534,N,2316.4897,E,5.62,,051117,,,A*43
$GPGGA,140328.000,4238.9530,N,2316.4876,E,1,0,,,M,,M,,*47
$GPRMC,140328.000,A,4238.9530,N,2316.4876,E,5.79,,051117,,,A*4D
$GPGGA,140329.000,4238.9526,N,2316.4855,E,1,0,,,M,,M,,*40
$GPRMC,140329.000,A,4238.9526,N,2316.4855,E,5.79,,051117,,,A*4A
$GPGGA,140330.000,4238.9522,N,2316.4834,E,1,0,,,M,,M,,*4B
$GPRMC,140330.000,A,4238.9522,N,2316.4834,E,6.00,,051117,,,A*4C
$GPGGA,140331.000,4238.9518,N,2316.4811,E,1,0,,,M,,M,,*44
$GPRMC,140331.000,A,4238.9518,N,2316.4811,E,6.05,,051117,,,A*46
$GPGGA,140332.000,4238.9516,N,2316.4788,E,1,0,,,M,,M,,*46
$GPRMC,140332.000,A,4238.9516,N,2316.4788,E,6.00,,051117,,,A*41
$GPGGA,140333.000,4238.9513,N,2316.4766,E,1,0,,,M,,M,,*42
$GPRMC,140333.000,A,4238.9513,N,2316.4766,E,5.95,,051117,,,A*4A
$GPGGA,140334.000,4238.9512,N,2316.4744,E,1,0,,,M,,M,,*44
$GPRMC,140334.000,A,4238.9512,N,2316.4744,E,6.19,,051117,,,A*4B
$GPGGA,140335.000,4238.9510,N,2316.4722,E,1,0,,,M,,M,,*47
$GPRMC,140335.000,A,4238.9510,N,2316.4722,E,5.83,,051117,,,A*48
$GPGGA,140336.000,4238.9506,N,2316.4700,E,1,0,,,M,,M,,*43
$GPRMC,140336.000,A,4238.9506,N,2316.4700,E,6.00,,051117,,,A*44
$GPGGA,140337.000,4238.9503,N,2316.4677,E,1,0,,,M,,M,,*46
$GPRMC,140337.000,A,4238.9503,N,2316.4677,E,5.77,,051117,,,A*42
$GPGGA,140338.000,4238.9499,N,2316.4657,E,1,0,,,M,,M,,*49
$GPRMC,140338.000,A,4238.9499,N,2316.4657,E,5.57,,051117,,,A*4F
$GPGGA,140339.000,4238.9496,N,2316.4636,E,1,0,,,M,,M,,*40
$GPRMC,140339.000,A,4238.9496,N,2316.4636,E,5.56,,051117,,,A*47
$GPGGA,140340.000,4238.9494,N,2316.4615,E,1,0,,,M,,M,,*4D
$GPRMC,140340.000,A,4238.9494,N,2316.4615,E,5.57,,051117,,,A*4B
$GPGGA,140341.000,4238.9492,N,2316.4595,E,1,0,,,M,,M,,*41
$GPRMC,140341.000,A,4238.9492,N,2316.4595,E,5.64,,051117,,,A*47
$GPGGA,140342.000,4238.9490,N,2316.4574,E,1,0,,,M,,M,,*4F
$GPRMC,140342.000,A,4238.9490,N,2316.4574,E,5.66,,051117,,,A*4B
$GPGGA,140343.000,4238.9489,N,2316.4552,E,1,0,,,M,,M,,*42
$GPRMC,140343.000,A,4238.9489,N,2316.4552,E,5.65,,051117,,,A*45
$GPGGA,140344.000,4238.9486,N,2316.4530,E,1,0,,,M,,M,,*4E
$GPRMC,140344.000,A,4238.9486,N,2316.4530,E,5.69,,051117,,,A*45
$GPGGA,140345.000,4238.9482,N,2316.4508,E,1,0,,,M,,M,,*40
$GPRMC,140345.000,A,4238.9482,N,2316.4508,E,5.73,,051117,,,A*40
$GPGGA,140346.000,4238.9479,N,2316.4487,E,1,0,,,M,,M,,*41
$GPRMC,140346.000,A,4238.9479,N,2316.4487,E,5.90,,051117,,,A*4C
$GPGGA,140347.000,4238.9474,N,2316.4465,E,1,0,,,M,,M,,*41
$GPRMC,140347.000,A,4238.9474,N,2316.4465,E,5.89,,051117,,,A*44
$GPGGA,140348.000,4238.9471,N,2316.4444,E,1,0,,,M,,M,,*48
$GPRMC,140348.000,A,4238.9471,N,2316.4444,E,5.90,,051117,,,A*45
$GPGGA,140349.000,4238.9469,N,2316.4422,E,1,0,,,M,,M,,*40
$GPRMC,140349.000,A,4238.9469,N,2316.4422,E,5.97,,051117,,,A*4A
$GPGGA,140350.000,4238.9467,N,2316.4400,E,1,0,,,M,,M,,*46
$GPRMC,140350.000,A,4238.9467,N,2316.4400,E,5.99,,051117,,,A*42
$GPGGA,140351.000,4238.9463,N,2316.4379,E,1,0,,,M,,M,,*4A
$GPRMC,140351.000,A,4238.9463,N,2316.4379,E,5.79,,051117,,,A*40
$GPGGA,140352.000,4238.9459,N,2316.4357,E,1,0,,,M,,M,,*4C
$GPRMC,140352.000,A,4238.9459,N,2316.4357,E,5.87,,051117,,,A*47
$GPGGA,140353.000,4238.9458,N,2316.4335,E,1,0,,,M,,M,,*48
$GPRMC,140353.000,A,4238.9458,N,2316.4335,E,6.05,,051117,,,A*4A
$GPGGA,140354.000,4238.9458,N,2316.4312,E,1,0,,,M,,M,,*4A
$GPRMC,140354.000,A,4238.9458,N,2316.4312,E,6.29,,051117,,,A*46
$GPGGA,140355.000,4238.9456,N,2316.4288,E,1,0,,,M,,M,,*47
$GPRMC,140355.000,A,4238.9456,N,2316.4288,E,6.47,,051117,,,A*43
$GPGGA,140356.000,4238.9454,N,2316.4264,E,1,0,,,M,,M,,*44
$GPRMC,140356.000,A,4238.9454,N,2316.4264,E,6.27,,051117,,,A*46
$GPGGA,140357.000,4238.9452,N,2316.4239,E,1,0,,,M,,M,,*4B
$GPRMC,140357.000,A,4238.9452,N,2316.4239,E,6.67,,051117,,,A*4D
$GPGGA,140358.000,4238.9451,N,2316.4214,E,1,0,,,M,,M,,*48
$GPRMC,140358.000,A,4238.9451,N,2316.4214,E,6.66,,051117,,,A*4F
$GPGGA,140359.000,4238.9450,N,2316.4189,E,1,0,,,M,,M,,*4F
$GPRMC,140359.000,A,4238.9450,N,2316.4189,E,6.51,,051117,,,A*4C
$GPGGA,140400.000,4238.9448,N,2316.4165,E,1,0,,,M,,M,,*4F
$GPRMC,140400.000,A,4238.9448,N,2316.4165,E,6.53,,051117,,,A*4E
$GPGGA,140401.000,4238.9445,N,2316.4140,E,1,0,,,M,,M,,*44
$GPRMC,140401.000,A,4238.9445,N,2316.4140,E,6.61,,051117,,,A*44
$GPGGA,140402.000,4238.9445,N,2316.4115,E,1,0,,,M,,M,,*47
$GPRMC,140402.000,A,4238.9445,N,2316.4115,E,6.66,,051117,,,A*40
$GPGGA,140403.000,4238.9446,N,2316.4090,E,1,0,,,M,,M,,*49
$GPRMC,140403.000,A,4238.9446,N,2316.4090,E,6.73,,051117,,,A*4A
$GPGGA,140404.000,4238.9446,N,2316.4064,E,1,0,,,M,,M,,*45
$GPRMC,140404.000,A,4238.9446,N,2316.4064,E,7.00,,051117,,,A*43
$GPGGA,140406.000,4238.9444,N,2316.4011,E,1,0,,,M,,M,,*47
$GPRMC,140406.000,A,4238.9444,N,2316.4011,E,6.77,,051117,,,A*40
$GPGGA,140408.000,4238.9438,N,2316.3961,E,1,0,,,M,,M,,*4B
$GPRMC,140408.000,A,4238.9438,N,2316.3961,E,6.74,,051117,,,A*4F
$GPGGA,140409.000,4238.9437,N,2316.3936,E,1,0,,,M,,M,,*47
$GPRMC,140409.000,A,4238.9437,N,2316.3936,E,6.81,,051117,,,A*49
$GPGGA,140411.000,4238.9434,N,2316.3884,E,1,0,,,M,,M,,*45
$GPRMC,140411.000,A,4238.9434,N,2316.3884,E,6.79,,051117,,,A*4C
$GPGGA,140412.000,4238.9432,N,2316.3857,E,1,0,,,M,,M,,*4E
$GPRMC,140412.000,A,4238.9432,N,2316.3857,E,7.04,,051117,,,A*4C
$GPGGA,140413.000,4238.9432,N,2316.3831,E,1,0,,,M,,M,,*4F
$GPRMC,140413.000,A,4238.9432,N,2316.3831,E,7.08,,051117,,,A*41
$GPGGA,140414.000,4238.9432,N,2316.3805,E,1,0,,,M,,M,,*4F
$GPRMC,140414.000,A,4238.9432,N,2316.3805,E,7.13,,051117,,,A*4B
$GPGGA,140416.000,4238.9430,N,2316.3753,E,1,0,,,M,,M,,*43
$GPRMC,140416.000,A,4238.9430,N,2316.3753,E,6.89,,051117,,,A*45
$GPGGA,140418.000,4238.9427,N,2316.3701,E,1,0,,,M,,M,,*4C
$GPRMC,140418.000,A,4238.9427,N,2316.3701,E,6.50,,051117,,,A*4E
$GPGGA,140419.000,4238.9425,N,2316.3676,E,1,0,,,M,,M,,*4E
$GPRMC,140419.000,A,4238.9425,N,2316.3676,E,6.51,,051117,,,A*4D
$GPGGA,140421.000,4238.9421,N,2316.3627,E,1,0,,,M,,M,,*45
$GPRMC,140421.000,A,4238.9421,N,2316.3627,E,6.53,,051117,,,A*44
$GPGGA,140422.000,4238.9419,N,2316.3603,E,1,0,,,M,,M,,*4B
$GPRMC,140422.000,A,4238.9419,N,2316.3603,E,6.37,,051117,,,A*48
$GPGGA,140423.000,4238.9417,N,2316.3579,E,1,0,,,M,,M,,*4A
$GPRMC,140423.000,A,4238.9417,N,2316.3579,E,6.33,,051117,,,A*4D
$GPGGA,140424.000,4238.9416,N,2316.3556,E,1,0,,,M,,M,,*41
$GPRMC,140424.000,A,4238.9416,N,2316.3556,E,6.12,,051117,,,A*45
$GPGGA,140425.000,4238.9413,N,2316.3533,E,1,0,,,M,,M,,*46
$GPRMC,140425.000,A,4238.9413,N,2316.3533,E,6.14,,051117,,,A*44
$GPGGA,140426.000,4238.9410,N,2316.3510,E,1,0,,,M,,M,,*47
$GPRMC,140426.000,A,4238.9410,N,2316.3510,E,6.41,,051117,,,A*45
$GPGGA,140427.000,4238.9407,N,2316.3485,E,1,0,,,M,,M,,*4D
$GPRMC,140427.000,A,4238.9407,N,2316.3485,E,6.75,,051117,,,A*48
$GPGGA,140428.000,4238.9406,N,2316.3459,E,1,0,,,M,,M,,*42
$GPRMC,140428.000,A,4238.9406,N,2316.3459,E,6.97,,051117,,,A*4B
$GPGGA,140429.000,4238.9405,N,2316.3434,E,1,0,,,M,,M,,*4B
$GPRMC,140429.000,A,4238.9405,N,2316.3434,E,6.48,,051117,,,A*40
$GPGGA,140430.000,4238.9404,N,2316.3410,E,1,0,,,M,,M,,*44
$GPRMC,140430.000,A,4238.9404,N,2316.3410,E,6.51,,051117,,,A*47
$GPGGA,140431.000,4238.9404,N,2316.3385,E,1,0,,,M,,M,,*4E
$GPRMC,140431.000,A,4238.9404,N,2316.3385,E,6.49,,051117,,,A*44
$GPGGA,140432.000,4238.9405,N,2316.3360,E,1,0,,,M,,M,,*47
$GPRMC,140432.000,A,4238.9405,N,2316.3360,E,6.77,,051117,,,A*40
$GPGGA,140433.000,4238.9405,N,2316.3335,E,1,0,,,M,,M,,*46
$GPRMC,140433.000,A,4238.9405,N,2316.3335,E,6.81,,051117,,,A*48
$GPGGA,140434.000,4238.9405,N,2316.3309,E,1,0,,,M,,M,,*4E
$GPRMC,140434.000,A,4238.9405,N,2316.3309,E,6.83,,051117,,,A*42
$GPGGA,140435.000,4238.9404,N,2316.3283,E,1,0,,,M,,M,,*4D
$GPRMC,140435.000,A,4238.9404,N,2316.3283,E,6.83,,051117,,,A*41
$GPGGA,140436.000,4238.9403,N,2316.3256,E,1,0,,,M,,M,,*41
$GPRMC,140436.000,A,4238.9403,N,2316.3256,E,6.88,,051117,,,A*46
$GPGGA,140437.000,4238.9402,N,2316.3230,E,1,0,,,M,,M,,*41
$GPRMC,140437.000,A,4238.9402,N,2316.3230,E,6.88,,051117,,,A*46
$GPGGA,140438.000,4238.9401,N,2316.3204,E,1,0,,,M,,M,,*4A
$GPRMC,140438.000,A,4238.9401,N,2316.3204,E,6.89,,051117,,,A*4C
$GPGGA,140439.000,4238.9399,N,2316.3179,E,1,0,,,M,,M,,*44
$GPRMC,140439.000,A,4238.9399,N,2316.3179,E,6.89,,051117,,,A*42
$GPGGA,140440.000,4238.9397,N,2316.3153,E,1,0,,,M,,M,,*4C
$GPRMC,140440.000,A,4238.9397,N,2316.3153,E,6.72,,051117,,,A*4E
$GPGGA,140441.000,4238.9395,N,2316.3128,E,1,0,,,M,,M,,*43
$GPRMC,140441.000,A,4238.9395,N,2316.3128,E,6.78,,051117,,,A*4B
$GPGGA,140442.000,4238.9393,N,2316.3104,E,1,0,,,M,,M,,*48
$GPRMC,140442.000,A,4238.9393,N,2316.3104,E,6.79,,051117,,,A*41
$GPGGA,140443.000,4238.9391,N,2316.3078,E,1,0,,,M,,M,,*41
$GPRMC,140443.000,A,4238.9391,N,2316.3078,E,6.83,,051117,,,A*4D
$GPGGA,140444.000,4238.9388,N,2316.3052,E,1,0,,,M,,M,,*46
$GPRMC,140444.000,A,4238.9388,N,2316.3052,E,6.89,,051117,,,A*40
$GPGGA,140445.000,4238.9386,N,2316.3025,E,1,0,,,M,,M,,*49
$GPRMC,140445.000,A,4238.9386,N,2316.3025,E,6.95,,051117,,,A*42
$GPGGA,140446.000,4238.9384,N,2316.2999,E,1,0,,,M,,M,,*47
$GPRMC,140446.000,A,4238.9384,N,2316.2999,E,6.98,,051117,,,A*41
$GPGGA,140447.000,4238.9383,N,2316.2972,E,1,0,,,M,,M,,*44
$GPRMC,140447.000,A,4238.9383,N,2316.2972,E,6.97,,051117,,,A*4D
$GPGGA,140448.000,4238.9382,N,2316.2946,E,1,0,,,M,,M,,*4D
$GPRMC,140448.000,A,4238.9382,N,2316.2946,E,6.76,,051117,,,A*4B
$GPGGA,140449.000,4238.9381,N,2316.2921,E,1,0,,,M,,M,,*4E
$GPRMC,140449.000,A,4238.9381,N,2316.2921,E,6.79,,051117,,,A*47
$GPGGA,140450.000,4238.9380,N,2316.2894,E,1,0,,,M,,M,,*48
$GPRMC,140450.000,A,4238.9380,N,2316.2894,E,7.15,,051117,,,A*4A
$GPGGA,140451.000,4238.9378,N,2316.2867,E,1,0,,,M,,M,,*42
$GPRMC,140451.000,A,4238.9378,N,2316.2867,E,7.19,,051117,,,A*4C
$GPGGA,140452.000,4238.9377,N,2316.2840,E,1,0,,,M,,M,,*4B
$GPRMC,140452.000,A,4238.9377,N,2316.2840,E,7.24,,051117,,,A*4B
$GPGGA,140453.000,4238.9376,N,2316.2812,E,1,0,,,M,,M,,*4C
$GPRMC,140453.000,A,4238.9376,N,2316.2812,E,7.19,,051117,,,A*42
$GPGGA,140454.000,4238.9376,N,2316.2785,E,1,0,,,M,,M,,*4A
$GPRMC,140454.000,A,4238.9376,N,2316.2785,E,7.18,,051117,,,A*45
$GPGGA,140455.000,4238.9375,N,2316.2757,E,1,0,,,M,,M,,*47
$GPRMC,140455.000,A,4238.9375,N,2316.2757,E,7.38,,051117,,,A*4A
$GPGGA,140456.000,4238.9374,N,2316.2729,E,1,0,,,M,,M,,*4C
$GPRMC,140456.000,A,4238.9374,N,2316.2729,E,7.44,,051117,,,A*4A
$GPGGA,140457.000,4238.9372,N,2316.2701,E,1,0,,,M,,M,,*41
$GPRMC,140457.000,A,4238.9372,N,2316.2701,E,7.39,,051117,,,A*4D
$GPGGA,140458.000,4238.9369,N,2316.2674,E,1,0,,,M,,M,,*47
$GPRMC,140458.000,A,4238.9369,N,2316.2674,E,7.38,,051117,,,A*4A
$GPGGA,140459.000,4238.9364,N,2316.2648,E,1,0,,,M,,M,,*44
$GPRMC,140459.000,A,4238.9364,N,2316.2648,E,7.38,,051117,,,A*49
$GPGGA,140500.000,4238.9357,N,2316.2622,E,1,0,,,M,,M,,*45
$GPRMC,140500.000,A,4238.9357,N,2316.2622,E,7.41,,051117,,,A*46
$GPGGA,140501.000,4238.9351,N,2316.2595,E,1,0,,,M,,M,,*4D
