@Sonygps/ver5.0/wgs-84/20171110070623.000/
@Sonygpsoption/0/20171110070720.000/20171110070712.000/
$GPGGA,070712.000,4238.5444,N,2322.9147,E,1,0,,,M,,M,,*47
$GPRMC,070712.000,A,4238.5444,N,2322.9147,E,2.17,,101117,,,A*46
$GPGGA,070713.000,4238.5434,N,2322.9131,E,1,0,,,M,,M,,*40
$GPRMC,070713.000,A,4238.5434,N,2322.9131,E,2.61,,101117,,,A*40
$GPGGA,070714.000,4238.5424,N,2322.9123,E,1,0,,,M,,M,,*45
$GPRMC,070714.000,A,4238.5424,N,2322.9123,E,2.54,,101117,,,A*43
$GPGGA,070715.000,4238.5412,N,2322.9115,E,1,0,,,M,,M,,*44
$GPRMC,070715.000,A,4238.5412,N,2322.9115,E,2.61,,101117,,,A*44
$GPGGA,070716.000,4238.5388,N,2322.9104,E,1,0,,,M,,M,,*43
$GPRMC,070716.000,A,4238.5388,N,2322.9104,E,3.01,,101117,,,A*44
$GPGGA,070717.000,4238.5374,N,2322.9099,E,1,0,,,M,,M,,*44
$GPRMC,070717.000,A,4238.5374,N,2322.9099,E,3.70,,101117,,,A*45
$GPGGA,070718.000,4238.5351,N,2322.9095,E,1,0,,,M,,M,,*40
$GPRMC,070718.000,A,4238.5351,N,2322.9095,E,4.46,,101117,,,A*43
$GPGGA,070719.000,4238.5332,N,2322.9092,E,1,0,,,M,,M,,*43
$GPRMC,070719.000,A,4238.5332,N,2322.9092,E,4.91,,101117,,,A*4A
$GPGGA,070720.000,4238.5316,N,2322.9089,E,1,0,,,M,,M,,*45
$GPRMC,070720.000,A,4238.5316,N,2322.9089,E,5.10,,101117,,,A*44
$GPGGA,070721.000,4238.5295,N,2322.9084,E,1,0,,,M,,M,,*43
$GPRMC,070721.000,A,4238.5295,N,2322.9084,E,5.40,,101117,,,A*47
$GPGGA,070722.000,4238.5268,N,2322.9074,E,1,0,,,M,,M,,*4D
$GPRMC,070722.000,A,4238.5268,N,2322.9074,E,5.75,,101117,,,A*4F
$GPGGA,070723.000,4238.5247,N,2322.9066,E,1,0,,,M,,M,,*42
$GPRMC,070723.000,A,4238.5247,N,2322.9066,E,6.01,,101117,,,A*40
$GPGGA,070724.000,4238.5230,N,2322.9055,E,1,0,,,M,,M,,*45
$GPRMC,070724.000,A,4238.5230,N,2322.9055,E,6.11,,101117,,,A*46
$GPGGA,070725.000,4238.5215,N,2322.9046,E,1,0,,,M,,M,,*41
$GPRMC,070725.000,A,4238.5215,N,2322.9046,E,5.98,,101117,,,A*40
$GPGGA,070726.000,4238.5200,N,2322.9039,E,1,0,,,M,,M,,*4E
$GPRMC,070726.000,A,4238.5200,N,2322.9039,E,5.85,,101117,,,A*43
$GPGGA,070727.000,4238.5184,N,2322.9034,E,1,0,,,M,,M,,*4D
$GPRMC,070727.000,A,4238.5184,N,2322.9034,E,5.86,,101117,,,A*43
$GPGGA,070728.000,4238.5167,N,2322.9032,E,1,0,,,M,,M,,*49
$GPRMC,070728.000,A,4238.5167,N,2322.9032,E,6.54,,101117,,,A*4B
$GPGGA,070729.000,4238.5150,N,2322.9027,E,1,0,,,M,,M,,*48
$GPRMC,070729.000,A,4238.5150,N,2322.9027,E,6.73,,101117,,,A*4F
$GPGGA,070730.000,4238.5131,N,2322.9021,E,1,0,,,M,,M,,*41
$GPRMC,070730.000,A,4238.5131,N,2322.9021,E,6.52,,101117,,,A*45
$GPGGA,070731.000,4238.5114,N,2322.9017,E,1,0,,,M,,M,,*42
$GPRMC,070731.000,A,4238.5114,N,2322.9017,E,5.66,,101117,,,A*42
$GPGGA,070732.000,4238.5096,N,2322.9016,E,1,0,,,M,,M,,*4B
$GPRMC,070732.000,A,4238.5096,N,2322.9016,E,5.67,,101117,,,A*4A
$GPGGA,070733.000,4238.5079,N,2322.9017,E,1,0,,,M,,M,,*4A
$GPRMC,070733.000,A,4238.5079,N,2322.9017,E,5.45,,101117,,,A*4B
$GPGGA,070734.000,4238.5061,N,2322.9019,E,1,0,,,M,,M,,*4A
$GPRMC,070734.000,A,4238.5061,N,2322.9019,E,5.80,,101117,,,A*42
$GPGGA,070735.000,4238.5048,N,2322.9019,E,1,0,,,M,,M,,*40
$GPRMC,070735.000,A,4238.5048,N,2322.9019,E,5.57,,101117,,,A*42
$GPGGA,070736.000,4238.5035,N,2322.9018,E,1,0,,,M,,M,,*48
$GPRMC,070736.000,A,4238.5035,N,2322.9018,E,5.53,,101117,,,A*4E
$GPGGA,070737.000,4238.5022,N,2322.9017,E,1,0,,,M,,M,,*40
$GPRMC,070737.000,A,4238.5022,N,2322.9017,E,5.90,,101117,,,A*49
$GPGGA,070738.000,4238.5005,N,2322.9018,E,1,0,,,M,,M,,*45
$GPRMC,070738.000,A,4238.5005,N,2322.9018,E,6.17,,101117,,,A*40
$GPGGA,070739.000,4238.4991,N,2322.9016,E,1,0,,,M,,M,,*4F
$GPRMC,070739.000,A,4238.4991,N,2322.9016,E,5.57,,101117,,,A*4D
$GPGGA,070740.000,4238.4978,N,2322.9018,E,1,0,,,M,,M,,*48
$GPRMC,070740.000,A,4238.4978,N,2322.9018,E,4.75,,101117,,,A*4B
$GPGGA,070741.000,4238.4959,N,2322.9024,E,1,0,,,M,,M,,*45
$GPRMC,070741.000,A,4238.4959,N,2322.9024,E,4.32,,101117,,,A*45
$GPGGA,070742.000,4238.4939,N,2322.9020,E,1,0,,,M,,M,,*44
$GPRMC,070742.000,A,4238.4939,N,2322.9020,E,4.08,,101117,,,A*4D
$GPGGA,070743.000,4238.4926,N,2322.9013,E,1,0,,,M,,M,,*4B
$GPRMC,070743.000,A,4238.4926,N,2322.9013,E,3.81,,101117,,,A*44
$GPGGA,070744.000,4238.4909,N,2322.9002,E,1,0,,,M,,M,,*41
$GPRMC,070744.000,A,4238.4909,N,2322.9002,E,4.16,,101117,,,A*47
$GPGGA,070745.000,4238.4904,N,2322.8986,E,1,0,,,M,,M,,*49
$GPRMC,070745.000,A,4238.4904,N,2322.8986,E,4.21,,101117,,,A*4B
$GPGGA,070746.000,4238.4894,N,2322.8970,E,1,0,,,M,,M,,*4B
$GPRMC,070746.000,A,4238.4894,N,2322.8970,E,5.12,,101117,,,A*48
$GPGGA,070747.000,4238.4881,N,2322.8953,E,1,0,,,M,,M,,*4F
$GPRMC,070747.000,A,4238.4881,N,2322.8953,E,5.63,,101117,,,A*4A
$GPGGA,070748.000,4238.4866,N,2322.8939,E,1,0,,,M,,M,,*45
$GPRMC,070748.000,A,4238.4866,N,2322.8939,E,6.05,,101117,,,A*43
$GPGGA,070749.000,4238.4853,N,2322.8922,E,1,0,,,M,,M,,*48
$GPRMC,070749.000,A,4238.4853,N,2322.8922,E,6.22,,101117,,,A*4B
$GPGGA,070750.000,4238.4841,N,2322.8904,E,1,0,,,M,,M,,*47
$GPRMC,070750.000,A,4238.4841,N,2322.8904,E,5.73,,101117,,,A*43
$GPGGA,070751.000,4238.4829,N,2322.8889,E,1,0,,,M,,M,,*4C
$GPRMC,070751.000,A,4238.4829,N,2322.8889,E,5.71,,101117,,,A*4A
$GPGGA,070752.000,4238.4810,N,2322.8874,E,1,0,,,M,,M,,*47
$GPRMC,070752.000,A,4238.4810,N,2322.8874,E,6.18,,101117,,,A*4D
$GPGGA,070753.000,4238.4792,N,2322.8865,E,1,0,,,M,,M,,*43
$GPRMC,070753.000,A,4238.4792,N,2322.8865,E,5.85,,101117,,,A*4E
$GPGGA,070754.000,4238.4770,N,2322.8857,E,1,0,,,M,,M,,*49
$GPRMC,070754.000,A,4238.4770,N,2322.8857,E,5.35,,101117,,,A*4F
$GPGGA,070755.000,4238.4745,N,2322.8856,E,1,0,,,M,,M,,*4F
$GPRMC,070755.000,A,4238.4745,N,2322.8856,E,5.42,,101117,,,A*49
$GPGGA,070756.000,4238.4723,N,2322.8865,E,1,0,,,M,,M,,*4C
$GPRMC,070756.000,A,4238.4723,N,2322.8865,E,6.25,,101117,,,A*48
$GPGGA,070757.000,4238.4707,N,2322.8878,E,1,0,,,M,,M,,*47
$GPRMC,070757.000,A,4238.4707,N,2322.8878,E,7.17,,101117,,,A*43
$GPGGA,070758.000,4238.4685,N,2322.8897,E,1,0,,,M,,M,,*42
$GPRMC,070758.000,A,4238.4685,N,2322.8897,E,8.66,,101117,,,A*4F
$GPGGA,070759.000,4238.4656,N,2322.8913,E,1,0,,,M,,M,,*40
$GPRMC,070759.000,A,4238.4656,N,2322.8913,E,9.80,,101117,,,A*44
$GPGGA,070800.000,4238.4627,N,2322.8925,E,1,0,,,M,,M,,*40
$GPRMC,070800.000,A,4238.4627,N,2322.8925,E,10.06,,101117,,,A*72
$GPGGA,070801.000,4238.4595,N,2322.8935,E,1,0,,,M,,M,,*4A
$GPRMC,070801.000,A,4238.4595,N,2322.8935,E,10.02,,101117,,,A*7C
$GPGGA,070802.000,4238.4563,N,2322.8945,E,1,0,,,M,,M,,*47
$GPRMC,070802.000,A,4238.4563,N,2322.8945,E,9.74,,101117,,,A*48
$GPGGA,070803.000,4238.4529,N,2322.8955,E,1,0,,,M,,M,,*49
$GPRMC,070803.000,A,4238.4529,N,2322.8955,E,9.24,,101117,,,A*43
$GPGGA,070804.000,4238.4496,N,2322.8963,E,1,0,,,M,,M,,*4E
$GPRMC,070804.000,A,4238.4496,N,2322.8963,E,9.19,,101117,,,A*4A
$GPGGA,070805.000,4238.4469,N,2322.8971,E,1,0,,,M,,M,,*4C
$GPRMC,070805.000,A,4238.4469,N,2322.8971,E,9.24,,101117,,,A*46
$GPGGA,070806.000,4238.4441,N,2322.8983,E,1,0,,,M,,M,,*48
$GPRMC,070806.000,A,4238.4441,N,2322.8983,E,9.47,,101117,,,A*47
$GPGGA,070807.000,4238.4410,N,2322.8996,E,1,0,,,M,,M,,*49
$GPRMC,070807.000,A,4238.4410,N,2322.8996,E,9.44,,101117,,,A*45
$GPGGA,070808.000,4238.4380,N,2322.9009,E,1,0,,,M,,M,,*46
$GPRMC,070808.000,A,4238.4380,N,2322.9009,E,9.44,,101117,,,A*4A
$GPGGA,070809.000,4238.4351,N,2322.9023,E,1,0,,,M,,M,,*43
$GPRMC,070809.000,A,4238.4351,N,2322.9023,E,9.27,,101117,,,A*4A
$GPGGA,070810.000,4238.4327,N,2322.9033,E,1,0,,,M,,M,,*4B
$GPRMC,070810.000,A,4238.4327,N,2322.9033,E,9.00,,101117,,,A*47
$GPGGA,070811.000,4238.4301,N,2322.9036,E,1,0,,,M,,M,,*4B
$GPRMC,070811.000,A,4238.4301,N,2322.9036,E,9.51,,101117,,,A*43
$GPGGA,070812.000,4238.4275,N,2322.9035,E,1,0,,,M,,M,,*49
$GPRMC,070812.000,A,4238.4275,N,2322.9035,E,10.05,,101117,,,A*78
$GPGGA,070813.000,4238.4247,N,2322.9033,E,1,0,,,M,,M,,*4F
$GPRMC,070813.000,A,4238.4247,N,2322.9033,E,10.56,,101117,,,A*78
$GPGGA,070814.000,4238.4213,N,2322.9034,E,1,0,,,M,,M,,*4E
$GPRMC,070814.000,A,4238.4213,N,2322.9034,E,11.27,,101117,,,A*7E
$GPGGA,070815.000,4238.4179,N,2322.9041,E,1,0,,,M,,M,,*42
$GPRMC,070815.000,A,4238.4179,N,2322.9041,E,11.34,,101117,,,A*70
$GPGGA,070816.000,4238.4144,N,2322.9048,E,1,0,,,M,,M,,*46
$GPRMC,070816.000,A,4238.4144,N,2322.9048,E,11.56,,101117,,,A*70
$GPGGA,070817.000,4238.4111,N,2322.9057,E,1,0,,,M,,M,,*49
$GPRMC,070817.000,A,4238.4111,N,2322.9057,E,11.03,,101117,,,A*7F
$GPGGA,070818.000,4238.4080,N,2322.9064,E,1,0,,,M,,M,,*4F
$GPRMC,070818.000,A,4238.4080,N,2322.9064,E,10.28,,101117,,,A*71
$GPGGA,070819.000,4238.4049,N,2322.9069,E,1,0,,,M,,M,,*46
$GPRMC,070819.000,A,4238.4049,N,2322.9069,E,9.79,,101117,,,A*44
$GPGGA,070820.000,4238.4018,N,2322.9075,E,1,0,,,M,,M,,*45
$GPRMC,070820.000,A,4238.4018,N,2322.9075,E,9.59,,101117,,,A*45
$GPGGA,070821.000,4238.3988,N,2322.9080,E,1,0,,,M,,M,,*49
$GPRMC,070821.000,A,4238.3988,N,2322.9080,E,9.81,,101117,,,A*4C
$GPGGA,070822.000,4238.3958,N,2322.9084,E,1,0,,,M,,M,,*43
$GPRMC,070822.000,A,4238.3958,N,2322.9084,E,9.75,,101117,,,A*4D
$GPGGA,070823.000,4238.3931,N,2322.9085,E,1,0,,,M,,M,,*4C
$GPRMC,070823.000,A,4238.3931,N,2322.9085,E,9.38,,101117,,,A*4B
$GPGGA,070824.000,4238.3903,N,2322.9088,E,1,0,,,M,,M,,*47
$GPRMC,070824.000,A,4238.3903,N,2322.9088,E,9.44,,101117,,,A*4B
$GPGGA,070825.000,4238.3875,N,2322.9093,E,1,0,,,M,,M,,*4C
$GPRMC,070825.000,A,4238.3875,N,2322.9093,E,9.68,,101117,,,A*4E
$GPGGA,070826.000,4238.3847,N,2322.9096,E,1,0,,,M,,M,,*4B
$GPRMC,070826.000,A,4238.3847,N,2322.9096,E,9.70,,101117,,,A*40
$GPGGA,070827.000,4238.3814,N,2322.9097,E,1,0,,,M,,M,,*4D
$GPRMC,070827.000,A,4238.3814,N,2322.9097,E,9.95,,101117,,,A*4D
$GPGGA,070828.000,4238.3779,N,2322.9098,E,1,0,,,M,,M,,*49
$GPRMC,070828.000,A,4238.3779,N,2322.9098,E,9.77,,101117,,,A*45
$GPGGA,070829.000,4238.3749,N,2322.9100,E,1,0,,,M,,M,,*4B
$GPRMC,070829.000,A,4238.3749,N,2322.9100,E,8.96,,101117,,,A*49
$GPGGA,070830.000,4238.3717,N,2322.9103,E,1,0,,,M,,M,,*4B
$GPRMC,070830.000,A,4238.3717,N,2322.9103,E,9.22,,101117,,,A*47
$GPGGA,070831.000,4238.3688,N,2322.9104,E,1,0,,,M,,M,,*4A
$GPRMC,070831.000,A,4238.3688,N,2322.9104,E,9.30,,101117,,,A*45
$GPGGA,070832.000,4238.3661,N,2322.9103,E,1,0,,,M,,M,,*49
$GPRMC,070832.000,A,4238.3661,N,2322.9103,E,9.25,,101117,,,A*42
$GPGGA,070833.000,4238.3632,N,2322.9100,E,1,0,,,M,,M,,*4D
$GPRMC,070833.000,A,4238.3632,N,2322.9100,E,8.99,,101117,,,A*40
$GPGGA,070834.000,4238.3607,N,2322.9096,E,1,0,,,M,,M,,*42
$GPRMC,070834.000,A,4238.3607,N,2322.9096,E,8.97,,101117,,,A*41
$GPGGA,070835.000,4238.3579,N,2322.9089,E,1,0,,,M,,M,,*47
$GPRMC,070835.000,A,4238.3579,N,2322.9089,E,8.94,,101117,,,A*47
$GPGGA,070836.000,4238.3553,N,2322.9085,E,1,0,,,M,,M,,*40
$GPRMC,070836.000,A,4238.3553,N,2322.9085,E,8.68,,101117,,,A*43
$GPGGA,070837.000,4238.3528,N,2322.9082,E,1,0,,,M,,M,,*4A
$GPRMC,070837.000,A,4238.3528,N,2322.9082,E,9.15,,101117,,,A*42
$GPGGA,070838.000,4238.3505,N,2322.9079,E,1,0,,,M,,M,,*4E
$GPRMC,070838.000,A,4238.3505,N,2322.9079,E,9.11,,101117,,,A*42
$GPGGA,070839.000,4238.3478,N,2322.9075,E,1,0,,,M,,M,,*48
$GPRMC,070839.000,A,4238.3478,N,2322.9075,E,9.42,,101117,,,A*42
$GPGGA,070840.000,4238.3445,N,2322.9072,E,1,0,,,M,,M,,*4F
$GPRMC,070840.000,A,4238.3445,N,2322.9072,E,8.93,,101117,,,A*48
$GPGGA,070841.000,4238.3416,N,2322.9069,E,1,0,,,M,,M,,*42
$GPRMC,070841.000,A,4238.3416,N,2322.9069,E,8.90,,101117,,,A*46
$GPGGA,070842.000,4238.3386,N,2322.9065,E,1,0,,,M,,M,,*43
$GPRMC,070842.000,A,4238.3386,N,2322.9065,E,8.93,,101117,,,A*44
$GPGGA,070843.000,4238.3353,N,2322.9066,E,1,0,,,M,,M,,*49
$GPRMC,070843.000,A,4238.3353,N,2322.9066,E,8.98,,101117,,,A*45
$GPGGA,070844.000,4238.3322,N,2322.9063,E,1,0,,,M,,M,,*4D
$GPRMC,070844.000,A,4238.3322,N,2322.9063,E,8.92,,101117,,,A*4B
$GPGGA,070845.000,4238.3295,N,2322.9060,E,1,0,,,M,,M,,*42
$GPRMC,070845.000,A,4238.3295,N,2322.9060,E,9.33,,101117,,,A*4E
$GPGGA,070846.000,4238.3269,N,2322.9055,E,1,0,,,M,,M,,*44
$GPRMC,070846.000,A,4238.3269,N,2322.9055,E,9.05,,101117,,,A*4D
$GPGGA,070847.000,4238.3243,N,2322.9047,E,1,0,,,M,,M,,*4E
$GPRMC,070847.000,A,4238.3243,N,2322.9047,E,9.10,,101117,,,A*43
$GPGGA,070848.000,4238.3215,N,2322.9040,E,1,0,,,M,,M,,*45
$GPRMC,070848.000,A,4238.3215,N,2322.9040,E,9.05,,101117,,,A*4C
$GPGGA,070849.000,4238.3188,N,2322.9034,E,1,0,,,M,,M,,*40
$GPRMC,070849.000,A,4238.3188,N,2322.9034,E,9.07,,101117,,,A*4B
$GPGGA,070850.000,4238.3161,N,2322.9030,E,1,0,,,M,,M,,*4B
$GPRMC,070850.000,A,4238.3161,N,2322.9030,E,8.80,,101117,,,A*4E
$GPGGA,070851.000,4238.3131,N,2322.9032,E,1,0,,,M,,M,,*4D
$GPRMC,070851.000,A,4238.3131,N,2322.9032,E,8.30,,101117,,,A*43
$GPGGA,070852.000,4238.3106,N,2322.9030,E,1,0,,,M,,M,,*48
$GPRMC,070852.000,A,4238.3106,N,2322.9030,E,7.52,,101117,,,A*4D
$GPGGA,070853.000,4238.3081,N,2322.9027,E,1,0,,,M,,M,,*41
$GPRMC,070853.000,A,4238.3081,N,2322.9027,E,6.86,,101117,,,A*4C
$GPGGA,070854.000,4238.3056,N,2322.9021,E,1,0,,,M,,M,,*4A
$GPRMC,070854.000,A,4238.3056,N,2322.9021,E,6.59,,101117,,,A*45
$GPGGA,070855.000,4238.3033,N,2322.9016,E,1,0,,,M,,M,,*4C
$GPRMC,070855.000,A,4238.3033,N,2322.9016,E,7.05,,101117,,,A*4B
$GPGGA,070856.000,4238.3009,N,2322.9009,E,1,0,,,M,,M,,*48
$GPRMC,070856.000,A,4238.3009,N,2322.9009,E,7.65,,101117,,,A*49
$GPGGA,070857.000,4238.2983,N,2322.8999,E,1,0,,,M,,M,,*42
$GPRMC,070857.000,A,4238.2983,N,2322.8999,E,7.72,,101117,,,A*45
$GPGGA,070858.000,4238.2960,N,2322.8989,E,1,0,,,M,,M,,*41
$GPRMC,070858.000,A,4238.2960,N,2322.8989,E,8.07,,101117,,,A*4B
$GPGGA,070859.000,4238.2934,N,2322.8980,E,1,0,,,M,,M,,*48
$GPRMC,070859.000,A,4238.2934,N,2322.8980,E,8.36,,101117,,,A*40
$GPGGA,070900.000,4238.2907,N,2322.8972,E,1,0,,,M,,M,,*48
$GPRMC,070900.000,A,4238.2907,N,2322.8972,E,8.30,,101117,,,A*46
$GPGGA,070901.000,4238.2883,N,2322.8964,E,1,0,,,M,,M,,*43
$GPRMC,070901.000,A,4238.2883,N,2322.8964,E,7.55,,101117,,,A*41
$GPGGA,070902.000,4238.2857,N,2322.8957,E,1,0,,,M,,M,,*49
$GPRMC,070902.000,A,4238.2857,N,2322.8957,E,6.99,,101117,,,A*4A
$GPGGA,070903.000,4238.2832,N,2322.8953,E,1,0,,,M,,M,,*4F
$GPRMC,070903.000,A,4238.2832,N,2322.8953,E,7.06,,101117,,,A*4B
$GPGGA,070904.000,4238.2810,N,2322.8944,E,1,0,,,M,,M,,*4E
$GPRMC,070904.000,A,4238.2810,N,2322.8944,E,7.03,,101117,,,A*4F
$GPGGA,070905.000,4238.2776,N,2322.8929,E,1,0,,,M,,M,,*4B
$GPRMC,070905.000,A,4238.2776,N,2322.8929,E,7.45,,101117,,,A*48
$GPGGA,070906.000,4238.2754,N,2322.8920,E,1,0,,,M,,M,,*41
$GPRMC,070906.000,A,4238.2754,N,2322.8920,E,7.18,,101117,,,A*4A
$GPGGA,070907.000,4238.2731,N,2322.8914,E,1,0,,,M,,M,,*44
$GPRMC,070907.000,A,4238.2731,N,2322.8914,E,7.40,,101117,,,A*42
$GPGGA,070908.000,4238.2709,N,2322.8901,E,1,0,,,M,,M,,*44
$GPRMC,070908.000,A,4238.2709,N,2322.8901,E,7.64,,101117,,,A*44
$GPGGA,070909.000,4238.2688,N,2322.8885,E,1,0,,,M,,M,,*40
$GPRMC,070909.000,A,4238.2688,N,2322.8885,E,7.89,,101117,,,A*43
$GPGGA,070910.000,4238.2667,N,2322.8867,E,1,0,,,M,,M,,*45
$GPRMC,070910.000,A,4238.2667,N,2322.8867,E,7.91,,101117,,,A*4F
$GPGGA,070911.000,4238.2646,N,2322.8850,E,1,0,,,M,,M,,*43
$GPRMC,070911.000,A,4238.2646,N,2322.8850,E,7.42,,101117,,,A*47
$GPGGA,070912.000,4238.2627,N,2322.8834,E,1,0,,,M,,M,,*45
$GPRMC,070912.000,A,4238.2627,N,2322.8834,E,6.71,,101117,,,A*40
$GPGGA,070913.000,4238.2605,N,2322.8821,E,1,0,,,M,,M,,*40
$GPRMC,070913.000,A,4238.2605,N,2322.8821,E,6.53,,101117,,,A*45
$GPGGA,070914.000,4238.2584,N,2322.8810,E,1,0,,,M,,M,,*4F
$GPRMC,070914.000,A,4238.2584,N,2322.8810,E,6.27,,101117,,,A*49
$GPGGA,070915.000,4238.2567,N,2322.8798,E,1,0,,,M,,M,,*4C
$GPRMC,070915.000,A,4238.2567,N,2322.8798,E,5.53,,101117,,,A*4A
$GPGGA,070916.000,4238.2551,N,2322.8789,E,1,0,,,M,,M,,*4A
$GPRMC,070916.000,A,4238.2551,N,2322.8789,E,5.74,,101117,,,A*49
$GPGGA,070917.000,4238.2533,N,2322.8778,E,1,0,,,M,,M,,*41
$GPRMC,070917.000,A,4238.2533,N,2322.8778,E,6.33,,101117,,,A*42
$GPGGA,070918.000,4238.2518,N,2322.8746,E,1,0,,,M,,M,,*4A
$GPRMC,070918.000,A,4238.2518,N,2322.8746,E,6.82,,101117,,,A*43
$GPGGA,070919.000,4238.2507,N,2322.8717,E,1,0,,,M,,M,,*41
$GPRMC,070919.000,A,4238.2507,N,2322.8717,E,6.52,,101117,,,A*45
$GPGGA,070920.000,4238.2491,N,2322.8696,E,1,0,,,M,,M,,*4D
$GPRMC,070920.000,A,4238.2491,N,2322.8696,E,6.44,,101117,,,A*4E
$GPGGA,070921.000,4238.2480,N,2322.8678,E,1,0,,,M,,M,,*4C
$GPRMC,070921.000,A,4238.2480,N,2322.8678,E,5.53,,101117,,,A*4A
$GPGGA,070922.000,4238.2471,N,2322.8662,E,1,0,,,M,,M,,*4A
$GPRMC,070922.000,A,4238.2471,N,2322.8662,E,5.17,,101117,,,A*4C
$GPGGA,070923.000,4238.2460,N,2322.8645,E,1,0,,,M,,M,,*4E
$GPRMC,070923.000,A,4238.2460,N,2322.8645,E,5.99,,101117,,,A*4E
$GPGGA,070924.000,4238.2441,N,2322.8623,E,1,0,,,M,,M,,*4A
$GPRMC,070924.000,A,4238.2441,N,2322.8623,E,7.55,,101117,,,A*48
$GPGGA,070925.000,4238.2421,N,2322.8604,E,1,0,,,M,,M,,*48
$GPRMC,070925.000,A,4238.2421,N,2322.8604,E,7.37,,101117,,,A*4E
$GPGGA,070926.000,4238.2415,N,2322.8577,E,1,0,,,M,,M,,*4B
$GPRMC,070926.000,A,4238.2415,N,2322.8577,E,6.33,,101117,,,A*48
$GPGGA,070927.000,4238.2402,N,2322.8560,E,1,0,,,M,,M,,*4A
$GPRMC,070927.000,A,4238.2402,N,2322.8560,E,5.96,,101117,,,A*45
$GPGGA,070928.000,4238.2385,N,2322.8544,E,1,0,,,M,,M,,*4B
$GPRMC,070928.000,A,4238.2385,N,2322.8544,E,5.90,,101117,,,A*42
$GPGGA,070929.000,4238.2369,N,2322.8528,E,1,0,,,M,,M,,*42
$GPRMC,070929.000,A,4238.2369,N,2322.8528,E,5.55,,101117,,,A*42
$GPGGA,070930.000,4238.2356,N,2322.8514,E,1,0,,,M,,M,,*49
$GPRMC,070930.000,A,4238.2356,N,2322.8514,E,5.90,,101117,,,A*40
$GPGGA,070931.000,4238.2352,N,2322.8504,E,1,0,,,M,,M,,*4D
$GPRMC,070931.000,A,4238.2352,N,2322.8504,E,5.86,,101117,,,A*43
$GPGGA,070932.000,4238.2340,N,2322.8493,E,1,0,,,M,,M,,*42
$GPRMC,070932.000,A,4238.2340,N,2322.8493,E,6.81,,101117,,,A*48
$GPGGA,070933.000,4238.2324,N,2322.8478,E,1,0,,,M,,M,,*44
$GPRMC,070933.000,A,4238.2324,N,2322.8478,E,7.72,,101117,,,A*43
$GPGGA,070934.000,4238.2298,N,2322.8463,E,1,0,,,M,,M,,*4F
$GPRMC,070934.000,A,4238.2298,N,2322.8463,E,7.79,,101117,,,A*43
$GPGGA,070935.000,4238.2273,N,2322.8445,E,1,0,,,M,,M,,*4F
$GPRMC,070935.000,A,4238.2273,N,2322.8445,E,7.80,,101117,,,A*45
$GPGGA,070936.000,4238.2261,N,2322.8425,E,1,0,,,M,,M,,*49
$GPRMC,070936.000,A,4238.2261,N,2322.8425,E,7.23,,101117,,,A*4A
$GPGGA,070937.000,4238.2251,N,2322.8403,E,1,0,,,M,,M,,*4F
$GPRMC,070937.000,A,4238.2251,N,2322.8403,E,8.11,,101117,,,A*42
$GPGGA,070938.000,4238.2234,N,2322.8384,E,1,0,,,M,,M,,*4B
$GPRMC,070938.000,A,4238.2234,N,2322.8384,E,9.37,,101117,,,A*43
$GPGGA,070939.000,4238.2210,N,2322.8366,E,1,0,,,M,,M,,*40
$GPRMC,070939.000,A,4238.2210,N,2322.8366,E,9.31,,101117,,,A*4E
$GPGGA,070940.000,4238.2183,N,2322.8352,E,1,0,,,M,,M,,*40
$GPRMC,070940.000,A,4238.2183,N,2322.8352,E,8.64,,101117,,,A*4F
$GPGGA,070941.000,4238.2160,N,2322.8339,E,1,0,,,M,,M,,*41
$GPRMC,070941.000,A,4238.2160,N,2322.8339,E,8.08,,101117,,,A*44
$GPGGA,070942.000,4238.2137,N,2322.8314,E,1,0,,,M,,M,,*4F
$GPRMC,070942.000,A,4238.2137,N,2322.8314,E,8.02,,101117,,,A*40
$GPGGA,070943.000,4238.2120,N,2322.8298,E,1,0,,,M,,M,,*4D
$GPRMC,070943.000,A,4238.2120,N,2322.8298,E,7.28,,101117,,,A*45
$GPGGA,070944.000,4238.2103,N,2322.8288,E,1,0,,,M,,M,,*4A
$GPRMC,070944.000,A,4238.2103,N,2322.8288,E,6.98,,101117,,,A*48
$GPGGA,070945.000,4238.2083,N,2322.8295,E,1,0,,,M,,M,,*4E
$GPRMC,070945.000,A,4238.2083,N,2322.8295,E,7.06,,101117,,,A*4A
$GPGGA,070946.000,4238.2060,N,2322.8291,E,1,0,,,M,,M,,*44
$GPRMC,070946.000,A,4238.2060,N,2322.8291,E,7.92,,101117,,,A*4D
$GPGGA,070947.000,4238.2040,N,2322.8283,E,1,0,,,M,,M,,*44
$GPRMC,070947.000,A,4238.2040,N,2322.8283,E,8.28,,101117,,,A*43
$GPGGA,070948.000,4238.2020,N,2322.8276,E,1,0,,,M,,M,,*47
$GPRMC,070948.000,A,4238.2020,N,2322.8276,E,8.28,,101117,,,A*40
$GPGGA,070949.000,4238.1997,N,2322.8265,E,1,0,,,M,,M,,*42
$GPRMC,070949.000,A,4238.1997,N,2322.8265,E,8.67,,101117,,,A*4E
$GPGGA,070950.000,4238.1972,N,2322.8253,E,1,0,,,M,,M,,*44
$GPRMC,070950.000,A,4238.1972,N,2322.8253,E,8.95,,101117,,,A*45
$GPGGA,070951.000,4238.1947,N,2322.8245,E,1,0,,,M,,M,,*44
$GPRMC,070951.000,A,4238.1947,N,2322.8245,E,8.91,,101117,,,A*41
$GPGGA,070952.000,4238.1922,N,2322.8241,E,1,0,,,M,,M,,*40
$GPRMC,070952.000,A,4238.1922,N,2322.8241,E,9.18,,101117,,,A*45
$GPGGA,070953.000,4238.1899,N,2322.8239,E,1,0,,,M,,M,,*4F
$GPRMC,070953.000,A,4238.1899,N,2322.8239,E,8.95,,101117,,,A*4E
$GPGGA,070954.000,4238.1876,N,2322.8235,E,1,0,,,M,,M,,*45
$GPRMC,070954.000,A,4238.1876,N,2322.8235,E,8.60,,101117,,,A*4E
$GPGGA,070955.000,4238.1853,N,2322.8230,E,1,0,,,M,,M,,*46
$GPRMC,070955.000,A,4238.1853,N,2322.8230,E,8.79,,101117,,,A*45
$GPGGA,070956.000,4238.1828,N,2322.8225,E,1,0,,,M,,M,,*4D
$GPRMC,070956.000,A,4238.1828,N,2322.8225,E,8.81,,101117,,,A*49
$GPGGA,070957.000,4238.1803,N,2322.8221,E,1,0,,,M,,M,,*41
$GPRMC,070957.000,A,4238.1803,N,2322.8221,E,8.88,,101117,,,A*4C
$GPGGA,070958.000,4238.1778,N,2322.8220,E,1,0,,,M,,M,,*4C
$GPRMC,070958.000,A,4238.1778,N,2322.8220,E,8.81,,101117,,,A*48
$GPGGA,070959.000,4238.1752,N,2322.8222,E,1,0,,,M,,M,,*47
$GPRMC,070959.000,A,4238.1752,N,2322.8222,E,8.59,,101117,,,A*46
$GPGGA,071000.000,4238.1728,N,2322.8224,E,1,0,,,M,,M,,*48
$GPRMC,071000.000,A,4238.1728,N,2322.8224,E,8.65,,101117,,,A*46
$GPGGA,071001.000,4238.1703,N,2322.8231,E,1,0,,,M,,M,,*44
$GPRMC,071001.000,A,4238.1703,N,2322.8231,E,8.69,,101117,,,A*46
$GPGGA,071002.000,4238.1679,N,2322.8236,E,1,0,,,M,,M,,*4C
$GPRMC,071002.000,A,4238.1679,N,2322.8236,E,8.64,,101117,,,A*43
$GPGGA,071003.000,4238.1652,N,2322.8248,E,1,0,,,M,,M,,*4D
$GPRMC,071003.000,A,4238.1652,N,2322.8248,E,8.62,,101117,,,A*44
$GPGGA,071004.000,4238.1628,N,2322.8260,E,1,0,,,M,,M,,*4D
$GPRMC,071004.000,A,4238.1628,N,2322.8260,E,8.55,,101117,,,A*40
$GPGGA,071005.000,4238.1605,N,2322.8270,E,1,0,,,M,,M,,*42
$GPRMC,071005.000,A,4238.1605,N,2322.8270,E,8.55,,101117,,,A*4F
$GPGGA,071006.000,4238.1581,N,2322.8283,E,1,0,,,M,,M,,*42
$GPRMC,071006.000,A,4238.1581,N,2322.8283,E,8.54,,101117,,,A*4E
$GPGGA,071007.000,4238.1555,N,2322.8293,E,1,0,,,M,,M,,*4B
$GPRMC,071007.000,A,4238.1555,N,2322.8293,E,8.82,,101117,,,A*4C
$GPGGA,071008.000,4238.1528,N,2322.8296,E,1,0,,,M,,M,,*4B
$GPRMC,071008.000,A,4238.1528,N,2322.8296,E,9.16,,101117,,,A*40
$GPGGA,071009.000,4238.1497,N,2322.8294,E,1,0,,,M,,M,,*4D
$GPRMC,071009.000,A,4238.1497,N,2322.8294,E,9.17,,101117,,,A*47
$GPGGA,071010.000,4238.1470,N,2322.8291,E,1,0,,,M,,M,,*49
$GPRMC,071010.000,A,4238.1470,N,2322.8291,E,8.93,,101117,,,A*4E
$GPGGA,071011.000,4238.1444,N,2322.8289,E,1,0,,,M,,M,,*46
$GPRMC,071011.000,A,4238.1444,N,2322.8289,E,8.43,,101117,,,A*4C
$GPGGA,071012.000,4238.1417,N,2322.8286,E,1,0,,,M,,M,,*4C
$GPRMC,071012.000,A,4238.1417,N,2322.8286,E,8.44,,101117,,,A*41
$GPGGA,071013.000,4238.1391,N,2322.8284,E,1,0,,,M,,M,,*46
$GPRMC,071013.000,A,4238.1391,N,2322.8284,E,8.70,,101117,,,A*4C
$GPGGA,071014.000,4238.1363,N,2322.8283,E,1,0,,,M,,M,,*4B
$GPRMC,071014.000,A,4238.1363,N,2322.8283,E,8.73,,101117,,,A*42
$GPGGA,071015.000,4238.1339,N,2322.8279,E,1,0,,,M,,M,,*40
$GPRMC,071015.000,A,4238.1339,N,2322.8279,E,8.42,,101117,,,A*4B
$GPGGA,071016.000,4238.1315,N,2322.8273,E,1,0,,,M,,M,,*47
$GPRMC,071016.000,A,4238.1315,N,2322.8273,E,9.12,,101117,,,A*48
$GPGGA,071017.000,4238.1291,N,2322.8270,E,1,0,,,M,,M,,*48
$GPRMC,071017.000,A,4238.1291,N,2322.8270,E,9.14,,101117,,,A*41
$GPGGA,071018.000,4238.1266,N,2322.8267,E,1,0,,,M,,M,,*49
$GPRMC,071018.000,A,4238.1266,N,2322.8267,E,8.66,,101117,,,A*44
$GPGGA,071019.000,4238.1241,N,2322.8266,E,1,0,,,M,,M,,*4C
$GPRMC,071019.000,A,4238.1241,N,2322.8266,E,8.27,,101117,,,A*44
$GPGGA,071020.000,4238.1216,N,2322.8265,E,1,0,,,M,,M,,*47
$GPRMC,071020.000,A,4238.1216,N,2322.8265,E,8.59,,101117,,,A*46
$GPGGA,071021.000,4238.1189,N,2322.8266,E,1,0,,,M,,M,,*40
$GPRMC,071021.000,A,4238.1189,N,2322.8266,E,9.24,,101117,,,A*4A
$GPGGA,071022.000,4238.1162,N,2322.8266,E,1,0,,,M,,M,,*46
$GPRMC,071022.000,A,4238.1162,N,2322.8266,E,9.31,,101117,,,A*48
$GPGGA,071023.000,4238.1133,N,2322.8268,E,1,0,,,M,,M,,*4D
$GPRMC,071023.000,A,4238.1133,N,2322.8268,E,9.70,,101117,,,A*46
$GPGGA,071024.000,4238.1103,N,2322.8269,E,1,0,,,M,,M,,*48
$GPRMC,071024.000,A,4238.1103,N,2322.8269,E,10.12,,101117,,,A*7F
$GPGGA,071025.000,4238.1074,N,2322.8270,E,1,0,,,M,,M,,*40
$GPRMC,071025.000,A,4238.1074,N,2322.8270,E,9.63,,101117,,,A*49
$GPGGA,071026.000,4238.1045,N,2322.8270,E,1,0,,,M,,M,,*41
$GPRMC,071026.000,A,4238.1045,N,2322.8270,E,9.90,,101117,,,A*44
$GPGGA,071027.000,4238.1018,N,2322.8270,E,1,0,,,M,,M,,*48
$GPRMC,071027.000,A,4238.1018,N,2322.8270,E,9.45,,101117,,,A*45
$GPGGA,071028.000,4238.0991,N,2322.8268,E,1,0,,,M,,M,,*47
$GPRMC,071028.000,A,4238.0991,N,2322.8268,E,9.47,,101117,,,A*48
$GPGGA,071029.000,4238.0963,N,2322.8266,E,1,0,,,M,,M,,*45
$GPRMC,071029.000,A,4238.0963,N,2322.8266,E,9.84,,101117,,,A*45
$GPGGA,071030.000,4238.0934,N,2322.8265,E,1,0,,,M,,M,,*4C
$GPRMC,071030.000,A,4238.0934,N,2322.8265,E,9.58,,101117,,,A*4D
$GPGGA,071031.000,4238.0908,N,2322.8263,E,1,0,,,M,,M,,*44
$GPRMC,071031.000,A,4238.0908,N,2322.8263,E,8.98,,101117,,,A*48
$GPGGA,071032.000,4238.0885,N,2322.8261,E,1,0,,,M,,M,,*41
$GPRMC,071032.000,A,4238.0885,N,2322.8261,E,8.63,,101117,,,A*49
$GPGGA,071033.000,4238.0858,N,2322.8261,E,1,0,,,M,,M,,*40
$GPRMC,071033.000,A,4238.0858,N,2322.8261,E,8.39,,101117,,,A*47
$GPGGA,071034.000,4238.0830,N,2322.8265,E,1,0,,,M,,M,,*4D
$GPRMC,071034.000,A,4238.0830,N,2322.8265,E,8.07,,101117,,,A*47
$GPGGA,071035.000,4238.0807,N,2322.8266,E,1,0,,,M,,M,,*4B
$GPRMC,071035.000,A,4238.0807,N,2322.8266,E,8.06,,101117,,,A*40
$GPGGA,071036.000,4238.0786,N,2322.8265,E,1,0,,,M,,M,,*4D
$GPRMC,071036.000,A,4238.0786,N,2322.8265,E,8.27,,101117,,,A*45
$GPGGA,071037.000,4238.0763,N,2322.8262,E,1,0,,,M,,M,,*40
$GPRMC,071037.000,A,4238.0763,N,2322.8262,E,8.83,,101117,,,A*46
$GPGGA,071038.000,4238.0738,N,2322.8259,E,1,0,,,M,,M,,*49
$GPRMC,071038.000,A,4238.0738,N,2322.8259,E,9.13,,101117,,,A*47
$GPGGA,071039.000,4238.0714,N,2322.8256,E,1,0,,,M,,M,,*49
$GPRMC,071039.000,A,4238.0714,N,2322.8256,E,9.10,,101117,,,A*44
$GPGGA,071040.000,4238.0690,N,2322.8252,E,1,0,,,M,,M,,*4E
$GPRMC,071040.000,A,4238.0690,N,2322.8252,E,9.25,,101117,,,A*45
$GPGGA,071041.000,4238.0663,N,2322.8249,E,1,0,,,M,,M,,*49
$GPRMC,071041.000,A,4238.0663,N,2322.8249,E,9.56,,101117,,,A*46
$GPGGA,071042.000,4238.0635,N,2322.8245,E,1,0,,,M,,M,,*45
$GPRMC,071042.000,A,4238.0635,N,2322.8245,E,9.36,,101117,,,A*4C
$GPGGA,071043.000,4238.0607,N,2322.8242,E,1,0,,,M,,M,,*42
$GPRMC,071043.000,A,4238.0607,N,2322.8242,E,10.10,,101117,,,A*77
$GPGGA,071044.000,4238.0579,N,2322.8238,E,1,0,,,M,,M,,*42
$GPRMC,071044.000,A,4238.0579,N,2322.8238,E,10.60,,101117,,,A*70
$GPGGA,071045.000,4238.0548,N,2322.8234,E,1,0,,,M,,M,,*4D
$GPRMC,071045.000,A,4238.0548,N,2322.8234,E,10.63,,101117,,,A*7C
$GPGGA,071046.000,4238.0518,N,2322.8230,E,1,0,,,M,,M,,*4F
$GPRMC,071046.000,A,4238.0518,N,2322.8230,E,10.47,,101117,,,A*78
$GPGGA,071047.000,4238.0488,N,2322.8226,E,1,0,,,M,,M,,*41
$GPRMC,071047.000,A,4238.0488,N,2322.8226,E,10.91,,101117,,,A*7D
$GPGGA,071048.000,4238.0457,N,2322.8223,E,1,0,,,M,,M,,*49
$GPRMC,071048.000,A,4238.0457,N,2322.8223,E,11.43,,101117,,,A*7B
$GPGGA,071049.000,4238.0425,N,2322.8220,E,1,0,,,M,,M,,*4E
$GPRMC,071049.000,A,4238.0425,N,2322.8220,E,11.76,,101117,,,A*7A
$GPGGA,071050.000,4238.0391,N,2322.8219,E,1,0,,,M,,M,,*44
$GPRMC,071050.000,A,4238.0391,N,2322.8219,E,11.75,,101117,,,A*73
$GPGGA,071051.000,4238.0358,N,2322.8219,E,1,0,,,M,,M,,*40
$GPRMC,071051.000,A,4238.0358,N,2322.8219,E,11.77,,101117,,,A*75
$GPGGA,071052.000,4238.0322,N,2322.8221,E,1,0,,,M,,M,,*45
$GPRMC,071052.000,A,4238.0322,N,2322.8221,E,11.38,,101117,,,A*7B
$GPGGA,071053.000,4238.0289,N,2322.8224,E,1,0,,,M,,M,,*41
$GPRMC,071053.000,A,4238.0289,N,2322.8224,E,11.36,,101117,,,A*71
$GPGGA,071054.000,4238.0258,N,2322.8225,E,1,0,,,M,,M,,*4B
$GPRMC,071054.000,A,4238.0258,N,2322.8225,E,10.67,,101117,,,A*7E
$GPGGA,071055.000,4238.0228,N,2322.8230,E,1,0,,,M,,M,,*49
$GPRMC,071055.000,A,4238.0228,N,2322.8230,E,9.83,,101117,,,A*4E
$GPGGA,071056.000,4238.0201,N,2322.8231,E,1,0,,,M,,M,,*40
$GPRMC,071056.000,A,4238.0201,N,2322.8231,E,8.97,,101117,,,A*43
$GPGGA,071057.000,4238.0176,N,2322.8233,E,1,0,,,M,,M,,*40
$GPRMC,071057.000,A,4238.0176,N,2322.8233,E,8.99,,101117,,,A*4D
$GPGGA,071058.000,4238.0151,N,2322.8236,E,1,0,,,M,,M,,*4F
$GPRMC,071058.000,A,4238.0151,N,2322.8236,E,8.15,,101117,,,A*46
$GPGGA,071059.000,4238.0126,N,2322.8241,E,1,0,,,M,,M,,*4E
$GPRMC,071059.000,A,4238.0126,N,2322.8241,E,8.17,,101117,,,A*45
$GPGGA,071100.000,4238.0100,N,2322.8246,E,1,0,,,M,,M,,*40
$GPRMC,071100.000,A,4238.0100,N,2322.8246,E,9.37,,101117,,,A*48
$GPGGA,071101.000,4238.0071,N,2322.8248,E,1,0,,,M,,M,,*48
$GPRMC,071101.000,A,4238.0071,N,2322.8248,E,9.85,,101117,,,A*49
$GPGGA,071102.000,4238.0040,N,2322.8250,E,1,0,,,M,,M,,*40
$GPRMC,071102.000,A,4238.0040,N,2322.8250,E,10.17,,101117,,,A*72
$GPGGA,071103.000,4238.0010,N,2322.8251,E,1,0,,,M,,M,,*45
$GPRMC,071103.000,A,4238.0010,N,2322.8251,E,10.62,,101117,,,A*75
$GPGGA,071104.000,4237.9979,N,2322.8253,E,1,0,,,M,,M,,*40
$GPRMC,071104.000,A,4237.9979,N,2322.8253,E,10.58,,101117,,,A*79
$GPGGA,071105.000,4237.9947,N,2322.8255,E,1,0,,,M,,M,,*4A
$GPRMC,071105.000,A,4237.9947,N,2322.8255,E,10.25,,101117,,,A*79
$GPGGA,071106.000,4237.9919,N,2322.8256,E,1,0,,,M,,M,,*41
$GPRMC,071106.000,A,4237.9919,N,2322.8256,E,10.06,,101117,,,A*73
$GPGGA,071107.000,4237.9891,N,2322.8255,E,1,0,,,M,,M,,*42
$GPRMC,071107.000,A,4237.9891,N,2322.8255,E,9.84,,101117,,,A*42
$GPGGA,071108.000,4237.9861,N,2322.8255,E,1,0,,,M,,M,,*42
$GPRMC,071108.000,A,4237.9861,N,2322.8255,E,10.13,,101117,,,A*74
$GPGGA,071109.000,4237.9830,N,2322.8257,E,1,0,,,M,,M,,*45
$GPRMC,071109.000,A,4237.9830,N,2322.8257,E,10.77,,101117,,,A*71
$GPGGA,071110.000,4237.9800,N,2322.8261,E,1,0,,,M,,M,,*4B
$GPRMC,071110.000,A,4237.9800,N,2322.8261,E,11.02,,101117,,,A*7C
$GPGGA,071111.000,4237.9769,N,2322.8264,E,1,0,,,M,,M,,*4F
$GPRMC,071111.000,A,4237.9769,N,2322.8264,E,11.03,,101117,,,A*79
$GPGGA,071112.000,4237.9738,N,2322.8265,E,1,0,,,M,,M,,*49
$GPRMC,071112.000,A,4237.9738,N,2322.8265,E,11.04,,101117,,,A*78
$GPGGA,071113.000,4237.9709,N,2322.8266,E,2,0,,,M,,M,,*4A
$GPRMC,071113.000,A,4237.9709,N,2322.8266,E,11.06,,101117,,,D*7F
$GPGGA,071114.000,4237.9679,N,2322.8266,E,2,0,,,M,,M,,*4B
$GPRMC,071114.000,A,4237.9679,N,2322.8266,E,10.89,,101117,,,D*78
$GPGGA,071115.000,4237.9648,N,2322.8266,E,2,0,,,M,,M,,*48
$GPRMC,071115.000,A,4237.9648,N,2322.8266,E,10.67,,101117,,,D*7B
$GPGGA,071116.000,4237.9618,N,2322.8266,E,2,0,,,M,,M,,*4E
$GPRMC,071116.000,A,4237.9618,N,2322.8266,E,10.71,,101117,,,D*7A
$GPGGA,071117.000,4237.9589,N,2322.8268,E,2,0,,,M,,M,,*4A
$GPRMC,071117.000,A,4237.9589,N,2322.8268,E,10.32,,101117,,,D*79
$GPGGA,071118.000,4237.9557,N,2322.8270,E,2,0,,,M,,M,,*4F
$GPRMC,071118.000,A,4237.9557,N,2322.8270,E,9.81,,101117,,,D*4C
$GPGGA,071119.000,4237.9538,N,2322.8269,E,2,0,,,M,,M,,*4F
$GPRMC,071119.000,A,4237.9538,N,2322.8269,E,9.16,,101117,,,D*42
$GPGGA,071120.000,4237.9521,N,2322.8271,E,2,0,,,M,,M,,*44
$GPRMC,071120.000,A,4237.9521,N,2322.8271,E,8.77,,101117,,,D*4F
$GPGGA,071121.000,4237.9499,N,2322.8271,E,2,0,,,M,,M,,*47
$GPRMC,071121.000,A,4237.9499,N,2322.8271,E,8.17,,101117,,,D*4A
$GPGGA,071122.000,4237.9480,N,2322.8271,E,2,0,,,M,,M,,*4C
$GPRMC,071122.000,A,4237.9480,N,2322.8271,E,7.86,,101117,,,D*46
$GPGGA,071123.000,4237.9465,N,2322.8268,E,2,0,,,M,,M,,*4E
$GPRMC,071123.000,A,4237.9465,N,2322.8268,E,7.89,,101117,,,D*4B
$GPGGA,071124.000,4237.9454,N,2322.8267,E,2,0,,,M,,M,,*44
$GPRMC,071124.000,A,4237.9454,N,2322.8267,E,7.57,,101117,,,D*42
$GPGGA,071125.000,4237.9440,N,2322.8273,E,2,0,,,M,,M,,*45
$GPRMC,071125.000,A,4237.9440,N,2322.8273,E,7.55,,101117,,,D*41
$GPGGA,071126.000,4237.9425,N,2322.8284,E,2,0,,,M,,M,,*4D
$GPRMC,071126.000,A,4237.9425,N,2322.8284,E,7.57,,101117,,,D*4B
$GPGGA,071127.000,4237.9406,N,2322.8293,E,2,0,,,M,,M,,*4B
$GPRMC,071127.000,A,4237.9406,N,2322.8293,E,7.11,,101117,,,D*4F
$GPGGA,071128.000,4237.9388,N,2322.8295,E,2,0,,,M,,M,,*43
$GPRMC,071128.000,A,4237.9388,N,2322.8295,E,6.92,,101117,,,D*4D
$GPGGA,071129.000,4237.9372,N,2322.8291,E,2,0,,,M,,M,,*43
$GPRMC,071129.000,A,4237.9372,N,2322.8291,E,6.05,,101117,,,D*43
$GPGGA,071130.000,4237.9358,N,2322.8287,E,2,0,,,M,,M,,*44
$GPRMC,071130.000,A,4237.9358,N,2322.8287,E,5.56,,101117,,,D*41
$GPGGA,071131.000,4237.9345,N,2322.8283,E,2,0,,,M,,M,,*4D
$GPRMC,071131.000,A,4237.9345,N,2322.8283,E,4.49,,101117,,,D*47
$GPGGA,071132.000,4237.9335,N,2322.8278,E,2,0,,,M,,M,,*4D
$GPRMC,071132.000,A,4237.9335,N,2322.8278,E,4.03,,101117,,,D*49
$GPGGA,071133.000,4237.9324,N,2322.8275,E,2,0,,,M,,M,,*41
$GPRMC,071133.000,A,4237.9324,N,2322.8275,E,4.08,,101117,,,D*4E
$GPGGA,071134.000,4237.9313,N,2322.8274,E,2,0,,,M,,M,,*43
$GPRMC,071134.000,A,4237.9313,N,2322.8274,E,3.40,,101117,,,D*47
$GPGGA,071135.000,4237.9306,N,2322.8273,E,2,0,,,M,,M,,*41
$GPRMC,071135.000,A,4237.9306,N,2322.8273,E,2.78,,101117,,,D*4F
$GPGGA,071136.000,4237.9298,N,2322.8270,E,2,0,,,M,,M,,*47
$GPRMC,071136.000,A,4237.9298,N,2322.8270,E,2.33,,101117,,,D*46
$GPGGA,071137.000,4237.9295,N,2322.8266,E,2,0,,,M,,M,,*4C
$GPRMC,071137.000,A,4237.9295,N,2322.8266,E,1.77,,101117,,,D*4E
$GPGGA,071138.000,4237.9293,N,2322.8261,E,2,0,,,M,,M,,*42
$GPRMC,071138.000,A,4237.9293,N,2322.8261,E,1.53,,101117,,,D*46
$GPGGA,071139.000,4237.9288,N,2322.8250,E,2,0,,,M,,M,,*4B
$GPRMC,071139.000,A,4237.9288,N,2322.8250,E,2.28,,101117,,,D*40
$GPGGA,071140.000,4237.9283,N,2322.8244,E,2,0,,,M,,M,,*4B
$GPRMC,071140.000,A,4237.9283,N,2322.8244,E,1.99,,101117,,,D*49
$GPGGA,071141.000,4237.9282,N,2322.8234,E,2,0,,,M,,M,,*4C
$GPRMC,071141.000,A,4237.9282,N,2322.8234,E,2.06,,101117,,,D*4B
$GPGGA,071142.000,4237.9281,N,2322.8223,E,2,0,,,M,,M,,*4A
$GPRMC,071142.000,A,4237.9281,N,2322.8223,E,2.45,,101117,,,D*4A
$GPGGA,071143.000,4237.9282,N,2322.8205,E,2,0,,,M,,M,,*4C
$GPRMC,071143.000,A,4237.9282,N,2322.8205,E,5.03,,101117,,,D*49
$GPGGA,071144.000,4237.9283,N,2322.8177,E,2,0,,,M,,M,,*4C
$GPRMC,071144.000,A,4237.9283,N,2322.8177,E,7.51,,101117,,,D*4C
$GPGGA,071145.000,4237.9276,N,2322.8153,E,2,0,,,M,,M,,*41
$GPRMC,071145.000,A,4237.9276,N,2322.8153,E,8.29,,101117,,,D*41
$GPGGA,071146.000,4237.9259,N,2322.8154,E,2,0,,,M,,M,,*48
$GPRMC,071146.000,A,4237.9259,N,2322.8154,E,6.73,,101117,,,D*49
$GPGGA,071147.000,4237.9246,N,2322.8151,E,2,0,,,M,,M,,*42
$GPRMC,071147.000,A,4237.9246,N,2322.8151,E,7.00,,101117,,,D*46
$GPGGA,071148.000,4237.9226,N,2322.8157,E,2,0,,,M,,M,,*4D
$GPRMC,071148.000,A,4237.9226,N,2322.8157,E,8.98,,101117,,,D*47
$GPGGA,071149.000,4237.9201,N,2322.8159,E,2,0,,,M,,M,,*47
$GPRMC,071149.000,A,4237.9201,N,2322.8159,E,8.63,,101117,,,D*49
$GPGGA,071150.000,4237.9176,N,2322.8162,E,2,0,,,M,,M,,*44
$GPRMC,071150.000,A,4237.9176,N,2322.8162,E,8.26,,101117,,,D*4B
$GPGGA,071152.000,4237.9131,N,2322.8171,E,2,0,,,M,,M,,*47
$GPRMC,071152.000,A,4237.9131,N,2322.8171,E,7.22,,101117,,,D*43
$GPGGA,071153.000,4237.9113,N,2322.8173,E,2,0,,,M,,M,,*44
$GPRMC,071153.000,A,4237.9113,N,2322.8173,E,6.34,,101117,,,D*46
$GPGGA,071154.000,4237.9094,N,2322.8179,E,2,0,,,M,,M,,*47
$GPRMC,071154.000,A,4237.9094,N,2322.8179,E,6.07,,101117,,,D*45
$GPGGA,071155.000,4237.9078,N,2322.8186,E,2,0,,,M,,M,,*44
$GPRMC,071155.000,A,4237.9078,N,2322.8186,E,6.03,,101117,,,D*42
$GPGGA,071156.000,4237.9061,N,2322.8191,E,2,0,,,M,,M,,*49
$GPRMC,071156.000,A,4237.9061,N,2322.8191,E,7.08,,101117,,,D*45
$GPGGA,071157.000,4237.9040,N,2322.8190,E,2,0,,,M,,M,,*4A
$GPRMC,071157.000,A,4237.9040,N,2322.8190,E,8.48,,101117,,,D*4D
$GPGGA,071159.000,4237.8984,N,2322.8189,E,2,0,,,M,,M,,*4C
$GPRMC,071159.000,A,4237.8984,N,2322.8189,E,11.37,,101117,,,D*7B
$GPGGA,071201.000,4237.8918,N,2322.8193,E,2,0,,,M,,M,,*4C
$GPRMC,071201.000,A,4237.8918,N,2322.8193,E,11.28,,101117,,,D*75
$GPGGA,071202.000,4237.8886,N,2322.8200,E,2,0,,,M,,M,,*40
$GPRMC,071202.000,A,4237.8886,N,2322.8200,E,10.72,,101117,,,D*77
$GPGGA,071204.000,4237.8825,N,2322.8207,E,2,0,,,M,,M,,*48
$GPRMC,071204.000,A,4237.8825,N,2322.8207,E,11.07,,101117,,,D*7C
$GPGGA,071206.000,4237.8758,N,2322.8214,E,2,0,,,M,,M,,*4D
$GPRMC,071206.000,A,4237.8758,N,2322.8214,E,11.82,,101117,,,D*74
$GPGGA,071208.000,4237.8695,N,2322.8217,E,2,0,,,M,,M,,*40
$GPRMC,071208.000,A,4237.8695,N,2322.8217,E,12.34,,101117,,,D*77
$GPGGA,071209.000,4237.8662,N,2322.8221,E,2,0,,,M,,M,,*4C
$GPRMC,071209.000,A,4237.8662,N,2322.8221,E,12.37,,101117,,,D*78
$GPGGA,071210.000,4237.8628,N,2322.8225,E,2,0,,,M,,M,,*4E
$GPRMC,071210.000,A,4237.8628,N,2322.8225,E,12.44,,101117,,,D*7E
$GPGGA,071211.000,4237.8594,N,2322.8229,E,2,0,,,M,,M,,*47
$GPRMC,071211.000,A,4237.8594,N,2322.8229,E,12.51,,101117,,,D*73
$GPGGA,071212.000,4237.8560,N,2322.8234,E,2,0,,,M,,M,,*43
$GPRMC,071212.000,A,4237.8560,N,2322.8234,E,12.55,,101117,,,D*73
$GPGGA,071214.000,4237.8494,N,2322.8243,E,2,0,,,M,,M,,*4F
$GPRMC,071214.000,A,4237.8494,N,2322.8243,E,11.23,,101117,,,D*7D
$GPGGA,071215.000,4237.8463,N,2322.8242,E,2,0,,,M,,M,,*47
$GPRMC,071215.000,A,4237.8463,N,2322.8242,E,11.46,,101117,,,D*76
$GPGGA,071216.000,4237.8434,N,2322.8232,E,2,0,,,M,,M,,*41
$GPRMC,071216.000,A,4237.8434,N,2322.8232,E,10.88,,101117,,,D*73
$GPGGA,071218.000,4237.8395,N,2322.8207,E,2,0,,,M,,M,,*45
$GPRMC,071218.000,A,4237.8395,N,2322.8207,E,5.79,,101117,,,D*4D
$GPGGA,071219.000,4237.8390,N,2322.8183,E,2,0,,,M,,M,,*4E
$GPRMC,071219.000,A,4237.8390,N,2322.8183,E,5.44,,101117,,,D*48
$GPGGA,071220.000,4237.8391,N,2322.8142,E,2,0,,,M,,M,,*48
$GPRMC,071220.000,A,4237.8391,N,2322.8142,E,7.00,,101117,,,D*4C
$GPGGA,071221.000,4237.8393,N,2322.8097,E,2,0,,,M,,M,,*42
$GPRMC,071221.000,A,4237.8393,N,2322.8097,E,8.77,,101117,,,D*49
$GPGGA,071222.000,4237.8395,N,2322.8052,E,2,0,,,M,,M,,*4E
$GPRMC,071222.000,A,4237.8395,N,2322.8052,E,9.51,,101117,,,D*40
$GPGGA,071223.000,4237.8395,N,2322.8008,E,2,0,,,M,,M,,*40
$GPRMC,071223.000,A,4237.8395,N,2322.8008,E,10.15,,101117,,,D*76
$GPGGA,071224.000,4237.8396,N,2322.7965,E,2,0,,,M,,M,,*49
$GPRMC,071224.000,A,4237.8396,N,2322.7965,E,10.41,,101117,,,D*7E
$GPGGA,071225.000,4237.8395,N,2322.7923,E,2,0,,,M,,M,,*49
$GPRMC,071225.000,A,4237.8395,N,2322.7923,E,10.40,,101117,,,D*7F
$GPGGA,071226.000,4237.8394,N,2322.7883,E,2,0,,,M,,M,,*40
$GPRMC,071226.000,A,4237.8394,N,2322.7883,E,10.40,,101117,,,D*76
$GPGGA,071227.000,4237.8394,N,2322.7843,E,2,0,,,M,,M,,*4D
$GPRMC,071227.000,A,4237.8394,N,2322.7843,E,10.36,,101117,,,D*7A
$GPGGA,071228.000,4237.8393,N,2322.7805,E,2,0,,,M,,M,,*47
$GPRMC,071228.000,A,4237.8393,N,2322.7805,E,9.97,,101117,,,D*43
$GPGGA,071229.000,4237.8393,N,2322.7765,E,2,0,,,M,,M,,*4F
$GPRMC,071229.000,A,4237.8393,N,2322.7765,E,10.23,,101117,,,D*7C
$GPGGA,071230.000,4237.8390,N,2322.7727,E,2,0,,,M,,M,,*42
$GPRMC,071230.000,A,4237.8390,N,2322.7727,E,9.91,,101117,,,D*40
$GPGGA,071232.000,4237.8396,N,2322.7639,E,2,0,,,M,,M,,*48
$GPRMC,071232.000,A,4237.8396,N,2322.7639,E,9.93,,101117,,,D*48
$GPGGA,071233.000,4237.8396,N,2322.7597,E,2,0,,,M,,M,,*4E
$GPRMC,071233.000,A,4237.8396,N,2322.7597,E,9.96,,101117,,,D*4B
$GPGGA,071234.000,4237.8397,N,2322.7554,E,2,0,,,M,,M,,*47
$GPRMC,071234.000,A,4237.8397,N,2322.7554,E,10.24,,101117,,,D*73
$GPGGA,071235.000,4237.8395,N,2322.7512,E,2,0,,,M,,M,,*46
$GPRMC,071235.000,A,4237.8395,N,2322.7512,E,10.62,,101117,,,D*70
$GPGGA,071236.000,4237.8394,N,2322.7470,E,2,0,,,M,,M,,*41
$GPRMC,071236.000,A,4237.8394,N,2322.7470,E,10.61,,101117,,,D*74
$GPGGA,071237.000,4237.8394,N,2322.7426,E,2,0,,,M,,M,,*43
$GPRMC,071237.000,A,4237.8394,N,2322.7426,E,10.39,,101117,,,D*7B
$GPGGA,071238.000,4237.8393,N,2322.7382,E,2,0,,,M,,M,,*42
$GPRMC,071238.000,A,4237.8393,N,2322.7382,E,10.59,,101117,,,D*7C
$GPGGA,071239.000,4237.8389,N,2322.7331,E,2,0,,,M,,M,,*40
$GPRMC,071239.000,A,4237.8389,N,2322.7331,E,10.57,,101117,,,D*70
$GPGGA,071240.000,4237.8385,N,2322.7285,E,2,0,,,M,,M,,*4C
$GPRMC,071240.000,A,4237.8385,N,2322.7285,E,10.39,,101117,,,D*74
$GPGGA,071241.000,4237.8384,N,2322.7242,E,2,0,,,M,,M,,*47
$GPRMC,071241.000,A,4237.8384,N,2322.7242,E,10.16,,101117,,,D*72
$GPGGA,071242.000,4237.8383,N,2322.7201,E,2,0,,,M,,M,,*44
$GPRMC,071242.000,A,4237.8383,N,2322.7201,E,10.21,,101117,,,D*75
$GPGGA,071243.000,4237.8382,N,2322.7161,E,2,0,,,M,,M,,*41
$GPRMC,071243.000,A,4237.8382,N,2322.7161,E,10.24,,101117,,,D*75
$GPGGA,071244.000,4237.8380,N,2322.7124,E,2,0,,,M,,M,,*45
$GPRMC,071244.000,A,4237.8380,N,2322.7124,E,10.27,,101117,,,D*72
$GPGGA,071245.000,4237.8379,N,2322.7086,E,2,0,,,M,,M,,*4B
$GPRMC,071245.000,A,4237.8379,N,2322.7086,E,10.44,,101117,,,D*79
$GPGGA,071246.000,4237.8378,N,2322.7049,E,2,0,,,M,,M,,*4A
$GPRMC,071246.000,A,4237.8378,N,2322.7049,E,10.43,,101117,,,D*7F
$GPGGA,071247.000,4237.8376,N,2322.7011,E,2,0,,,M,,M,,*48
$GPRMC,071247.000,A,4237.8376,N,2322.7011,E,10.38,,101117,,,D*71
$GPGGA,071248.000,4237.8373,N,2322.6974,E,2,0,,,M,,M,,*49
$GPRMC,071248.000,A,4237.8373,N,2322.6974,E,10.43,,101117,,,D*7C
$GPGGA,071249.000,4237.8371,N,2322.6936,E,2,0,,,M,,M,,*4C
$GPRMC,071249.000,A,4237.8371,N,2322.6936,E,10.44,,101117,,,D*7E
$GPGGA,071250.000,4237.8368,N,2322.6898,E,2,0,,,M,,M,,*49
$GPRMC,071250.000,A,4237.8368,N,2322.6898,E,10.37,,101117,,,D*7F
$GPGGA,071251.000,4237.8365,N,2322.6861,E,2,0,,,M,,M,,*43
$GPRMC,071251.000,A,4237.8365,N,2322.6861,E,10.38,,101117,,,D*7A
$GPGGA,071252.000,4237.8360,N,2322.6821,E,2,0,,,M,,M,,*41
$GPRMC,071252.000,A,4237.8360,N,2322.6821,E,10.70,,101117,,,D*74
$GPGGA,071253.000,4237.8356,N,2322.6783,E,2,0,,,M,,M,,*42
$GPRMC,071253.000,A,4237.8356,N,2322.6783,E,10.65,,101117,,,D*73
$GPGGA,071254.000,4237.8351,N,2322.6744,E,2,0,,,M,,M,,*49
$GPRMC,071254.000,A,4237.8351,N,2322.6744,E,10.87,,101117,,,D*74
$GPGGA,071255.000,4237.8344,N,2322.6703,E,2,0,,,M,,M,,*4F
$GPRMC,071255.000,A,4237.8344,N,2322.6703,E,11.06,,101117,,,D*7A
$GPGGA,071256.000,4237.8337,N,2322.6663,E,2,0,,,M,,M,,*4F
$GPRMC,071256.000,A,4237.8337,N,2322.6663,E,10.66,,101117,,,D*7D
$GPGGA,071257.000,4237.8330,N,2322.6623,E,2,0,,,M,,M,,*4D
$GPRMC,071257.000,A,4237.8330,N,2322.6623,E,10.46,,101117,,,D*7D
$GPGGA,071258.000,4237.8325,N,2322.6584,E,2,0,,,M,,M,,*48
$GPRMC,071258.000,A,4237.8325,N,2322.6584,E,10.48,,101117,,,D*76
$GPGGA,071259.000,4237.8319,N,2322.6545,E,2,0,,,M,,M,,*4B
$GPRMC,071259.000,A,4237.8319,N,2322.6545,E,10.85,,101117,,,D*74
$GPGGA,071300.000,4237.8314,N,2322.6506,E,2,0,,,M,,M,,*4C
$GPRMC,071300.000,A,4237.8314,N,2322.6506,E,10.86,,101117,,,D*70
$GPGGA,071301.000,4237.8309,N,2322.6466,E,2,0,,,M,,M,,*46
$GPRMC,071301.000,A,4237.8309,N,2322.6466,E,11.33,,101117,,,D*75
$GPGGA,071302.000,4237.8303,N,2322.6428,E,2,0,,,M,,M,,*45
$GPRMC,071302.000,A,4237.8303,N,2322.6428,E,11.02,,101117,,,D*74
$GPGGA,071303.000,4237.8298,N,2322.6392,E,2,0,,,M,,M,,*41
$GPRMC,071303.000,A,4237.8298,N,2322.6392,E,10.77,,101117,,,D*73
$GPGGA,071304.000,4237.8292,N,2322.6355,E,2,0,,,M,,M,,*47
$GPRMC,071304.000,A,4237.8292,N,2322.6355,E,10.94,,101117,,,D*78
$GPGGA,071305.000,4237.8287,N,2322.6317,E,2,0,,,M,,M,,*44
$GPRMC,071305.000,A,4237.8287,N,2322.6317,E,10.45,,101117,,,D*77
$GPGGA,071306.000,4237.8281,N,2322.6279,E,2,0,,,M,,M,,*48
$GPRMC,071306.000,A,4237.8281,N,2322.6279,E,10.49,,101117,,,D*77
$GPGGA,071307.000,4237.8276,N,2322.6242,E,2,0,,,M,,M,,*49
$GPRMC,071307.000,A,4237.8276,N,2322.6242,E,10.45,,101117,,,D*7A
$GPGGA,071308.000,4237.8271,N,2322.6205,E,2,0,,,M,,M,,*42
$GPRMC,071308.000,A,4237.8271,N,2322.6205,E,10.42,,101117,,,D*76
$GPGGA,071309.000,4237.8266,N,2322.6164,E,2,0,,,M,,M,,*41
$GPRMC,071309.000,A,4237.8266,N,2322.6164,E,9.90,,101117,,,D*42
$GPGGA,071310.000,4237.8261,N,2322.6127,E,2,0,,,M,,M,,*49
$GPRMC,071310.000,A,4237.8261,N,2322.6127,E,9.94,,101117,,,D*4E
$GPGGA,071311.000,4237.8257,N,2322.6091,E,2,0,,,M,,M,,*41
$GPRMC,071311.000,A,4237.8257,N,2322.6091,E,9.68,,101117,,,D*45
$GPGGA,071312.000,4237.8251,N,2322.6053,E,2,0,,,M,,M,,*4A
$GPRMC,071312.000,A,4237.8251,N,2322.6053,E,9.98,,101117,,,D*41
$GPGGA,071313.000,4237.8247,N,2322.6017,E,2,0,,,M,,M,,*4C
$GPRMC,071313.000,A,4237.8247,N,2322.6017,E,9.64,,101117,,,D*44
$GPGGA,071314.000,4237.8243,N,2322.5980,E,2,0,,,M,,M,,*4B
$GPRMC,071314.000,A,4237.8243,N,2322.5980,E,9.85,,101117,,,D*4C
$GPGGA,071315.000,4237.8241,N,2322.5944,E,2,0,,,M,,M,,*40
$GPRMC,071315.000,A,4237.8241,N,2322.5944,E,9.82,,101117,,,D*40
$GPGGA,071316.000,4237.8236,N,2322.5909,E,2,0,,,M,,M,,*4A
$GPRMC,071316.000,A,4237.8236,N,2322.5909,E,9.77,,101117,,,D*40
$GPGGA,071317.000,4237.8231,N,2322.5874,E,2,0,,,M,,M,,*47
$GPRMC,071317.000,A,4237.8231,N,2322.5874,E,9.44,,101117,,,D*4D
$GPGGA,071318.000,4237.8226,N,2322.5838,E,2,0,,,M,,M,,*46
$GPRMC,071318.000,A,4237.8226,N,2322.5838,E,9.02,,101117,,,D*4E
$GPGGA,071319.000,4237.8222,N,2322.5800,E,2,0,,,M,,M,,*48
$GPRMC,071319.000,A,4237.8222,N,2322.5800,E,9.00,,101117,,,D*42
$GPGGA,071320.000,4237.8219,N,2322.5766,E,2,0,,,M,,M,,*45
$GPRMC,071320.000,A,4237.8219,N,2322.5766,E,9.02,,101117,,,D*4D
$GPGGA,071321.000,4237.8214,N,2322.5730,E,2,0,,,M,,M,,*4A
$GPRMC,071321.000,A,4237.8214,N,2322.5730,E,9.47,,101117,,,D*43
$GPGGA,071322.000,4237.8209,N,2322.5694,E,2,0,,,M,,M,,*4A
$GPRMC,071322.000,A,4237.8209,N,2322.5694,E,9.47,,101117,,,D*43
$GPGGA,071323.000,4237.8206,N,2322.5659,E,2,0,,,M,,M,,*45
$GPRMC,071323.000,A,4237.8206,N,2322.5659,E,9.67,,101117,,,D*4E
$GPGGA,071324.000,4237.8203,N,2322.5623,E,2,0,,,M,,M,,*4A
$GPRMC,071324.000,A,4237.8203,N,2322.5623,E,9.83,,101117,,,D*4B
$GPGGA,071325.000,4237.8201,N,2322.5588,E,2,0,,,M,,M,,*4B
$GPRMC,071325.000,A,4237.8201,N,2322.5588,E,9.63,,101117,,,D*44
$GPGGA,071326.000,4237.8200,N,2322.5555,E,2,0,,,M,,M,,*49
$GPRMC,071326.000,A,4237.8200,N,2322.5555,E,9.38,,101117,,,D*48
$GPGGA,071327.000,4237.8198,N,2322.5520,E,2,0,,,M,,M,,*48
$GPRMC,071327.000,A,4237.8198,N,2322.5520,E,9.42,,101117,,,D*44
$GPGGA,071328.000,4237.8195,N,2322.5487,E,2,0,,,M,,M,,*46
$GPRMC,071328.000,A,4237.8195,N,2322.5487,E,9.41,,101117,,,D*49
$GPGGA,071329.000,4237.8192,N,2322.5457,E,2,0,,,M,,M,,*4D
$GPRMC,071329.000,A,4237.8192,N,2322.5457,E,9.94,,101117,,,D*4A
$GPGGA,071330.000,4237.8189,N,2322.5424,E,2,0,,,M,,M,,*4B
$GPRMC,071330.000,A,4237.8189,N,2322.5424,E,9.99,,101117,,,D*41
$GPGGA,071331.000,4237.8184,N,2322.5392,E,2,0,,,M,,M,,*4D
$GPRMC,071331.000,A,4237.8184,N,2322.5392,E,9.70,,101117,,,D*40
$GPGGA,071332.000,4237.8181,N,2322.5367,E,2,0,,,M,,M,,*41
$GPRMC,071332.000,A,4237.8181,N,2322.5367,E,9.19,,101117,,,D*43
$GPGGA,071333.000,4237.8178,N,2322.5336,E,2,0,,,M,,M,,*42
$GPRMC,071333.000,A,4237.8178,N,2322.5336,E,8.85,,101117,,,D*44
$GPGGA,071334.000,4237.8175,N,2322.5305,E,2,0,,,M,,M,,*48
$GPRMC,071334.000,A,4237.8175,N,2322.5305,E,9.18,,101117,,,D*4B
$GPGGA,071335.000,4237.8172,N,2322.5269,E,2,0,,,M,,M,,*45
$GPRMC,071335.000,A,4237.8172,N,2322.5269,E,9.24,,101117,,,D*49
$GPGGA,071336.000,4237.8167,N,2322.5235,E,2,0,,,M,,M,,*4B
$GPRMC,071336.000,A,4237.8167,N,2322.5235,E,9.27,,101117,,,D*44
$GPGGA,071337.000,4237.8163,N,2322.5202,E,2,0,,,M,,M,,*4A
$GPRMC,071337.000,A,4237.8163,N,2322.5202,E,9.09,,101117,,,D*49
$GPGGA,071338.000,4237.8159,N,2322.5170,E,2,0,,,M,,M,,*4A
$GPRMC,071338.000,A,4237.8159,N,2322.5170,E,8.71,,101117,,,D*47
$GPGGA,071339.000,4237.8155,N,2322.5138,E,2,0,,,M,,M,,*4B
$GPRMC,071339.000,A,4237.8155,N,2322.5138,E,8.70,,101117,,,D*47
$GPGGA,071340.000,4237.8148,N,2322.5107,E,2,0,,,M,,M,,*45
$GPRMC,071340.000,A,4237.8148,N,2322.5107,E,7.62,,101117,,,D*45
$GPGGA,071341.000,4237.8145,N,2322.5089,E,2,0,,,M,,M,,*4E
$GPRMC,071341.000,A,4237.8145,N,2322.5089,E,5.60,,101117,,,D*4E
$GPGGA,071342.000,4237.8144,N,2322.5075,E,2,0,,,M,,M,,*4F
$GPRMC,071342.000,A,4237.8144,N,2322.5075,E,4.45,,101117,,,D*49
$GPGGA,071343.000,4237.8148,N,2322.5061,E,2,0,,,M,,M,,*47
$GPRMC,071343.000,A,4237.8148,N,2322.5061,E,3.88,,101117,,,D*47
$GPGGA,071344.000,4237.8151,N,2322.5055,E,2,0,,,M,,M,,*4F
$GPRMC,071344.000,A,4237.8151,N,2322.5055,E,2.64,,101117,,,D*4C
$GPGGA,071345.000,4237.8155,N,2322.5049,E,2,0,,,M,,M,,*47
$GPRMC,071345.000,A,4237.8155,N,2322.5049,E,1.85,,101117,,,D*48
$GPGGA,071346.000,4237.8156,N,2322.5053,E,2,0,,,M,,M,,*4C
$GPRMC,071346.000,A,4237.8156,N,2322.5053,E,0.03,,101117,,,D*4C
$GPGGA,071347.000,4237.8159,N,2322.5053,E,2,0,,,M,,M,,*42
$GPRMC,071347.000,A,4237.8159,N,2322.5053,E,0.10,,101117,,,D*40
$GPGGA,071348.000,4237.8160,N,2322.5050,E,2,0,,,M,,M,,*44
$GPRMC,071348.000,A,4237.8160,N,2322.5050,E,0.13,,101117,,,D*45
$GPGGA,071349.000,4237.8160,N,2322.5045,E,2,0,,,M,,M,,*41
$GPRMC,071349.000,A,4237.8160,N,2322.5045,E,0.15,,101117,,,D*46
$GPGGA,071350.000,4237.8158,N,2322.5039,E,2,0,,,M,,M,,*49
$GPRMC,071350.000,A,4237.8158,N,2322.5039,E,0.13,,101117,,,D*48
$GPGGA,071351.000,4237.8158,N,2322.5034,E,2,0,,,M,,M,,*45
$GPRMC,071351.000,A,4237.8158,N,2322.5034,E,0.12,,101117,,,D*45
$GPGGA,071352.000,4237.8157,N,2322.5030,E,2,0,,,M,,M,,*4D
$GPRMC,071352.000,A,4237.8157,N,2322.5030,E,0.13,,101117,,,D*4C
$GPGGA,071353.000,4237.8155,N,2322.5025,E,2,0,,,M,,M,,*4A
$GPRMC,071353.000,A,4237.8155,N,2322.5025,E,0.21,,101117,,,D*4A
$GPGGA,071354.000,4237.8155,N,2322.5014,E,2,0,,,M,,M,,*4F
$GPRMC,071354.000,A,4237.8155,N,2322.5014,E,0.26,,101117,,,D*48
$GPGGA,071355.000,4237.8154,N,2322.5002,E,2,0,,,M,,M,,*48
$GPRMC,071355.000,A,4237.8154,N,2322.5002,E,3.53,,101117,,,D*4E
$GPGGA,071356.000,4237.8152,N,2322.4989,E,2,0,,,M,,M,,*46
$GPRMC,071356.000,A,4237.8152,N,2322.4989,E,3.45,,101117,,,D*47
$GPGGA,071357.000,4237.8150,N,2322.4977,E,2,0,,,M,,M,,*44
$GPRMC,071357.000,A,4237.8150,N,2322.4977,E,3.19,,101117,,,D*4C
$GPGGA,071358.000,4237.8145,N,2322.4966,E,2,0,,,M,,M,,*4F
$GPRMC,071358.000,A,4237.8145,N,2322.4966,E,3.35,,101117,,,D*49
$GPGGA,071359.000,4237.8140,N,2322.4955,E,2,0,,,M,,M,,*4B
$GPRMC,071359.000,A,4237.8140,N,2322.4955,E,3.30,,101117,,,D*48
$GPGGA,071400.000,4237.8136,N,2322.4947,E,2,0,,,M,,M,,*42
$GPRMC,071400.000,A,4237.8136,N,2322.4947,E,2.99,,101117,,,D*43
$GPGGA,071401.000,4237.8133,N,2322.4942,E,2,0,,,M,,M,,*43
$GPRMC,071401.000,A,4237.8133,N,2322.4942,E,1.87,,101117,,,D*4E
$GPGGA,071402.000,4237.8132,N,2322.4940,E,2,0,,,M,,M,,*43
$GPRMC,071402.000,A,4237.8132,N,2322.4940,E,0.87,,101117,,,D*4F
$GPGGA,071403.000,4237.8128,N,2322.4940,E,2,0,,,M,,M,,*49
$GPRMC,071403.000,A,4237.8128,N,2322.4940,E,1.37,,101117,,,D*4F
$GPGGA,071404.000,4237.8122,N,2322.4936,E,2,0,,,M,,M,,*45
$GPRMC,071404.000,A,4237.8122,N,2322.4936,E,2.38,,101117,,,D*4F
$GPGGA,071405.000,4237.8114,N,2322.4930,E,2,0,,,M,,M,,*47
$GPRMC,071405.000,A,4237.8114,N,2322.4930,E,3.04,,101117,,,D*43
$GPGGA,071406.000,4237.8107,N,2322.4919,E,2,0,,,M,,M,,*4D
$GPRMC,071406.000,A,4237.8107,N,2322.4919,E,5.03,,101117,,,D*48
$GPGGA,071407.000,4237.8097,N,2322.4903,E,2,0,,,M,,M,,*4F
$GPRMC,071407.000,A,4237.8097,N,2322.4903,E,6.20,,101117,,,D*48
$GPGGA,071408.000,4237.8086,N,2322.4882,E,2,0,,,M,,M,,*48
$GPRMC,071408.000,A,4237.8086,N,2322.4882,E,7.31,,101117,,,D*4E
$GPGGA,071409.000,4237.8077,N,2322.4858,E,2,0,,,M,,M,,*40
$GPRMC,071409.000,A,4237.8077,N,2322.4858,E,7.74,,101117,,,D*47
$GPGGA,071410.000,4237.8072,N,2322.4829,E,2,0,,,M,,M,,*4B
$GPRMC,071410.000,A,4237.8072,N,2322.4829,E,8.89,,101117,,,D*41
$GPGGA,071411.000,4237.8066,N,2322.4801,E,2,0,,,M,,M,,*45
$GPRMC,071411.000,A,4237.8066,N,2322.4801,E,7.68,,101117,,,D*4F
$GPGGA,071412.000,4237.8064,N,2322.4771,E,2,0,,,M,,M,,*4C
$GPRMC,071412.000,A,4237.8064,N,2322.4771,E,5.44,,101117,,,D*4A
$GPGGA,071413.000,4237.8061,N,2322.4753,E,2,0,,,M,,M,,*48
$GPRMC,071413.000,A,4237.8061,N,2322.4753,E,4.31,,101117,,,D*4D
$GPGGA,071414.000,4237.8055,N,2322.4737,E,2,0,,,M,,M,,*4A
$GPRMC,071414.000,A,4237.8055,N,2322.4737,E,4.88,,101117,,,D*4D
$GPGGA,071415.000,4237.8049,N,2322.4717,E,2,0,,,M,,M,,*44
$GPRMC,071415.000,A,4237.8049,N,2322.4717,E,6.36,,101117,,,D*44
$GPGGA,071416.000,4237.8044,N,2322.4692,E,2,0,,,M,,M,,*46
$GPRMC,071416.000,A,4237.8044,N,2322.4692,E,7.65,,101117,,,D*41
$GPGGA,071417.000,4237.8039,N,2322.4665,E,2,0,,,M,,M,,*45
$GPRMC,071417.000,A,4237.8039,N,2322.4665,E,7.61,,101117,,,D*46
$GPGGA,071418.000,4237.8034,N,2322.4637,E,2,0,,,M,,M,,*40
$GPRMC,071418.000,A,4237.8034,N,2322.4637,E,7.54,,101117,,,D*45
$GPGGA,071419.000,4237.8029,N,2322.4609,E,2,0,,,M,,M,,*40
$GPRMC,071419.000,A,4237.8029,N,2322.4609,E,6.99,,101117,,,D*45
$GPGGA,071420.000,4237.8025,N,2322.4586,E,2,0,,,M,,M,,*42
$GPRMC,071420.000,A,4237.8025,N,2322.4586,E,6.46,,101117,,,D*45
$GPGGA,071421.000,4237.8021,N,2322.4561,E,2,0,,,M,,M,,*4E
$GPRMC,071421.000,A,4237.8021,N,2322.4561,E,7.22,,101117,,,D*4A
$GPGGA,071422.000,4237.8017,N,2322.4534,E,2,0,,,M,,M,,*48
$GPRMC,071422.000,A,4237.8017,N,2322.4534,E,7.67,,101117,,,D*4D
$GPGGA,071423.000,4237.8013,N,2322.4503,E,2,0,,,M,,M,,*49
$GPRMC,071423.000,A,4237.8013,N,2322.4503,E,8.27,,101117,,,D*47
$GPGGA,071424.000,4237.8007,N,2322.4471,E,2,0,,,M,,M,,*4F
$GPRMC,071424.000,A,4237.8007,N,2322.4471,E,8.04,,101117,,,D*40
$GPGGA,071425.000,4237.8000,N,2322.4444,E,2,0,,,M,,M,,*4F
$GPRMC,071425.000,A,4237.8000,N,2322.4444,E,7.98,,101117,,,D*4A
$GPGGA,071426.000,4237.7992,N,2322.4416,E,2,0,,,M,,M,,*46
$GPRMC,071426.000,A,4237.7992,N,2322.4416,E,7.79,,101117,,,D*4C
$GPGGA,071427.000,4237.7986,N,2322.4388,E,2,0,,,M,,M,,*42
$GPRMC,071427.000,A,4237.7986,N,2322.4388,E,8.10,,101117,,,D*48
$GPGGA,071428.000,4237.7980,N,2322.4362,E,2,0,,,M,,M,,*4F
$GPRMC,071428.000,A,4237.7980,N,2322.4362,E,8.07,,101117,,,D*43
$GPGGA,071429.000,4237.7974,N,2322.4333,E,2,0,,,M,,M,,*41
$GPRMC,071429.000,A,4237.7974,N,2322.4333,E,8.38,,101117,,,D*41
$GPGGA,071430.000,4237.7967,N,2322.4306,E,2,0,,,M,,M,,*4D
$GPRMC,071430.000,A,4237.7967,N,2322.4306,E,7.49,,101117,,,D*44
$GPGGA,071431.000,4237.7958,N,2322.4280,E,2,0,,,M,,M,,*4F
$GPRMC,071431.000,A,4237.7958,N,2322.4280,E,7.92,,101117,,,D*40
$GPGGA,071432.000,4237.7950,N,2322.4253,E,2,0,,,M,,M,,*4A
$GPRMC,071432.000,A,4237.7950,N,2322.4253,E,7.50,,101117,,,D*4B
$GPGGA,071433.000,4237.7945,N,2322.4228,E,2,0,,,M,,M,,*43
$GPRMC,071433.000,A,4237.7945,N,2322.4228,E,6.70,,101117,,,D*41
$GPGGA,071434.000,4237.7943,N,2322.4207,E,2,0,,,M,,M,,*4F
$GPRMC,071434.000,A,4237.7943,N,2322.4207,E,5.16,,101117,,,D*4E
$GPGGA,071435.000,4237.7942,N,2322.4189,E,2,0,,,M,,M,,*4A
$GPRMC,071435.000,A,4237.7942,N,2322.4189,E,4.67,,101117,,,D*4C
$GPGGA,071436.000,4237.7941,N,2322.4173,E,2,0,,,M,,M,,*4F
$GPRMC,071436.000,A,4237.7941,N,2322.4173,E,4.67,,101117,,,D*49
$GPGGA,071437.000,4237.7940,N,2322.4156,E,2,0,,,M,,M,,*48
$GPRMC,071437.000,A,4237.7940,N,2322.4156,E,5.45,,101117,,,D*4F
$GPGGA,071438.000,4237.7937,N,2322.4137,E,2,0,,,M,,M,,*40
$GPRMC,071438.000,A,4237.7937,N,2322.4137,E,4.87,,101117,,,D*48
$GPGGA,071439.000,4237.7935,N,2322.4122,E,2,0,,,M,,M,,*47
$GPRMC,071439.000,A,4237.7935,N,2322.4122,E,3.88,,101117,,,D*47
$GPGGA,071440.000,4237.7932,N,2322.4114,E,2,0,,,M,,M,,*4B
$GPRMC,071440.000,A,4237.7932,N,2322.4114,E,2.43,,101117,,,D*4D
$GPGGA,071441.000,4237.7930,N,2322.4106,E,2,0,,,M,,M,,*4B
$GPRMC,071441.000,A,4237.7930,N,2322.4106,E,2.04,,101117,,,D*4E
$GPGGA,071442.000,4237.7929,N,2322.4097,E,2,0,,,M,,M,,*49
$GPRMC,071442.000,A,4237.7929,N,2322.4097,E,0.05,,101117,,,D*4F
$GPGGA,071443.000,4237.7930,N,2322.4089,E,2,0,,,M,,M,,*4F
$GPRMC,071443.000,A,4237.7930,N,2322.4089,E,0.02,,101117,,,D*4E
$GPGGA,071444.000,4237.7931,N,2322.4084,E,2,0,,,M,,M,,*44
$GPRMC,071444.000,A,4237.7931,N,2322.4084,E,0.06,,101117,,,D*41
$GPGGA,071445.000,4237.7931,N,2322.4080,E,2,0,,,M,,M,,*41
$GPRMC,071445.000,A,4237.7931,N,2322.4080,E,0.04,,101117,,,D*46
$GPGGA,071446.000,4237.7931,N,2322.4082,E,2,0,,,M,,M,,*40
$GPRMC,071446.000,A,4237.7931,N,2322.4082,E,0.02,,101117,,,D*41
$GPGGA,071447.000,4237.7931,N,2322.4083,E,2,0,,,M,,M,,*40
$GPRMC,071447.000,A,4237.7931,N,2322.4083,E,0.01,,101117,,,D*42
$GPGGA,071448.000,4237.7932,N,2322.4083,E,2,0,,,M,,M,,*4C
$GPRMC,071448.000,A,4237.7932,N,2322.4083,E,0.02,,101117,,,D*4D
$GPGGA,071449.000,4237.7932,N,2322.4082,E,2,0,,,M,,M,,*4C
$GPRMC,071449.000,A,4237.7932,N,2322.4082,E,0.02,,101117,,,D*4D
$GPGGA,071450.000,4237.7932,N,2322.4082,E,2,0,,,M,,M,,*44
$GPRMC,071450.000,A,4237.7932,N,2322.4082,E,0.03,,101117,,,D*44
$GPGGA,071451.000,4237.7933,N,2322.4081,E,2,0,,,M,,M,,*47
$GPRMC,071451.000,A,4237.7933,N,2322.4081,E,0.03,,101117,,,D*47
$GPGGA,071452.000,4237.7933,N,2322.4080,E,2,0,,,M,,M,,*45
$GPRMC,071452.000,A,4237.7933,N,2322.4080,E,0.03,,101117,,,D*45
$GPGGA,071453.000,4237.7934,N,2322.4079,E,2,0,,,M,,M,,*45
$GPRMC,071453.000,A,4237.7934,N,2322.4079,E,0.02,,101117,,,D*44
$GPGGA,071454.000,4237.7933,N,2322.4078,E,2,0,,,M,,M,,*44
$GPRMC,071454.000,A,4237.7933,N,2322.4078,E,0.01,,101117,,,D*46
$GPGGA,071455.000,4237.7933,N,2322.4078,E,2,0,,,M,,M,,*45
$GPRMC,071455.000,A,4237.7933,N,2322.4078,E,0.01,,101117,,,D*47
$GPGGA,071456.000,4237.7934,N,2322.4078,E,2,0,,,M,,M,,*41
$GPRMC,071456.000,A,4237.7934,N,2322.4078,E,0.02,,101117,,,D*40
$GPGGA,071457.000,4237.7933,N,2322.4077,E,2,0,,,M,,M,,*48
$GPRMC,071457.000,A,4237.7933,N,2322.4077,E,0.02,,101117,,,D*49
$GPGGA,071458.000,4237.7933,N,2322.4076,E,2,0,,,M,,M,,*46
$GPRMC,071458.000,A,4237.7933,N,2322.4076,E,0.01,,101117,,,D*44
$GPGGA,071459.000,4237.7933,N,2322.4076,E,2,0,,,M,,M,,*47
$GPRMC,071459.000,A,4237.7933,N,2322.4076,E,0.02,,101117,,,D*46
$GPGGA,071500.000,4237.7933,N,2322.4076,E,2,0,,,M,,M,,*4A
$GPRMC,071500.000,A,4237.7933,N,2322.4076,E,0.01,,101117,,,D*48
$GPGGA,071501.000,4237.7933,N,2322.4076,E,2,0,,,M,,M,,*4B
$GPRMC,071501.000,A,4237.7933,N,2322.4076,E,0.01,,101117,,,D*49
$GPGGA,071502.000,4237.7933,N,2322.4076,E,2,0,,,M,,M,,*48
$GPRMC,071502.000,A,4237.7933,N,2322.4076,E,0.01,,101117,,,D*4A
$GPGGA,071503.000,4237.7933,N,2322.4076,E,2,0,,,M,,M,,*49
$GPRMC,071503.000,A,4237.7933,N,2322.4076,E,0.02,,101117,,,D*48
$GPGGA,071504.000,4237.7933,N,2322.4075,E,2,0,,,M,,M,,*4D
$GPRMC,071504.000,A,4237.7933,N,2322.4075,E,0.01,,101117,,,D*4F
$GPGGA,071505.000,4237.7933,N,2322.4075,E,2,0,,,M,,M,,*4C
$GPRMC,071505.000,A,4237.7933,N,2322.4075,E,0.01,,101117,,,D*4E
$GPGGA,071506.000,4237.7933,N,2322.4075,E,2,0,,,M,,M,,*4F
$GPRMC,071506.000,A,4237.7933,N,2322.4075,E,0.15,,101117,,,D*48
$GPGGA,071507.000,4237.7933,N,2322.4074,E,2,0,,,M,,M,,*4F
$GPRMC,071507.000,A,4237.7933,N,2322.4074,E,0.11,,101117,,,D*4C
$GPGGA,071508.000,4237.7933,N,2322.4074,E,2,0,,,M,,M,,*40
$GPRMC,071508.000,A,4237.7933,N,2322.4074,E,0.21,,101117,,,D*40
$GPGGA,071509.000,4237.7933,N,2322.4073,E,2,0,,,M,,M,,*46
$GPRMC,071509.000,A,4237.7933,N,2322.4073,E,0.28,,101117,,,D*4F
$GPGGA,071510.000,4237.7933,N,2322.4072,E,2,0,,,M,,M,,*4F
$GPRMC,071510.000,A,4237.7933,N,2322.4072,E,0.38,,101117,,,D*47
$GPGGA,071511.000,4237.7933,N,2322.4071,E,2,0,,,M,,M,,*4D
$GPRMC,071511.000,A,4237.7933,N,2322.4071,E,0.56,,101117,,,D*4D
$GPGGA,071512.000,4237.7933,N,2322.4069,E,2,0,,,M,,M,,*47
$GPRMC,071512.000,A,4237.7933,N,2322.4069,E,0.88,,101117,,,D*44
$GPGGA,071513.000,4237.7934,N,2322.4065,E,2,0,,,M,,M,,*4D
$GPRMC,071513.000,A,4237.7934,N,2322.4065,E,1.29,,101117,,,D*44
$GPGGA,071514.000,4237.7934,N,2322.4060,E,2,0,,,M,,M,,*4F
$GPRMC,071514.000,A,4237.7934,N,2322.4060,E,2.25,,101117,,,D*49
$GPGGA,071515.000,4237.7931,N,2322.4040,E,2,0,,,M,,M,,*49
$GPRMC,071515.000,A,4237.7931,N,2322.4040,E,3.63,,101117,,,D*4C
$GPGGA,071516.000,4237.7928,N,2322.4014,E,2,0,,,M,,M,,*43
$GPRMC,071516.000,A,4237.7928,N,2322.4014,E,6.44,,101117,,,D*46
$GPGGA,071517.000,4237.7922,N,2322.3977,E,2,0,,,M,,M,,*43
$GPRMC,071517.000,A,4237.7922,N,2322.3977,E,9.53,,101117,,,D*4F
$GPGGA,071518.000,4237.7915,N,2322.3931,E,2,0,,,M,,M,,*4A
$GPRMC,071518.000,A,4237.7915,N,2322.3931,E,11.87,,101117,,,D*76
$GPGGA,071519.000,4237.7904,N,2322.3886,E,2,0,,,M,,M,,*46
$GPRMC,071519.000,A,4237.7904,N,2322.3886,E,13.84,,101117,,,D*7B
$GPGGA,071520.000,4237.7886,N,2322.3839,E,2,0,,,M,,M,,*43
$GPRMC,071520.000,A,4237.7886,N,2322.3839,E,14.32,,101117,,,D*74
$GPGGA,071521.000,4237.7861,N,2322.3800,E,2,0,,,M,,M,,*41
$GPRMC,071521.000,A,4237.7861,N,2322.3800,E,14.61,,101117,,,D*70
$GPGGA,071522.000,4237.7828,N,2322.3772,E,2,0,,,M,,M,,*45
$GPRMC,071522.000,A,4237.7828,N,2322.3772,E,14.66,,101117,,,D*73
$GPGGA,071523.000,4237.7790,N,2322.3755,E,2,0,,,M,,M,,*4D
$GPRMC,071523.000,A,4237.7790,N,2322.3755,E,13.66,,101117,,,D*7C
$GPGGA,071524.000,4237.7750,N,2322.3751,E,2,0,,,M,,M,,*42
$GPRMC,071524.000,A,4237.7750,N,2322.3751,E,13.96,,101117,,,D*7C
$GPGGA,071525.000,4237.7709,N,2322.3756,E,2,0,,,M,,M,,*48
$GPRMC,071525.000,A,4237.7709,N,2322.3756,E,14.75,,101117,,,D*7C
$GPGGA,071526.000,4237.7664,N,2322.3765,E,2,0,,,M,,M,,*41
$GPRMC,071526.000,A,4237.7664,N,2322.3765,E,16.18,,101117,,,D*7C
$GPGGA,071527.000,4237.7618,N,2322.3772,E,2,0,,,M,,M,,*4D
$GPRMC,071527.000,A,4237.7618,N,2322.3772,E,16.48,,101117,,,D*75
$GPGGA,071528.000,4237.7571,N,2322.3776,E,2,0,,,M,,M,,*4A
$GPRMC,071528.000,A,4237.7571,N,2322.3776,E,16.55,,101117,,,D*7E
$GPGGA,071529.000,4237.7524,N,2322.3780,E,2,0,,,M,,M,,*42
$GPRMC,071529.000,A,4237.7524,N,2322.3780,E,16.50,,101117,,,D*73
$GPGGA,071530.000,4237.7480,N,2322.3785,E,2,0,,,M,,M,,*40
$GPRMC,071530.000,A,4237.7480,N,2322.3785,E,16.21,,101117,,,D*77
