@Sonygps/ver5.0/wgs-84/20180126052425.000/
@Sonygpsoption/0/20180126052619.000/20180126052409.000/
$GPGGA,052409.000,4238.5480,N,2322.8854,E,1,0,,,M,,M,,*4C
$GPRMC,052409.000,A,4238.5480,N,2322.8854,E,0.45,,260118,,,A*43
$GPGGA,052410.000,4238.5475,N,2322.8846,E,1,0,,,M,,M,,*4D
$GPRMC,052410.000,A,4238.5475,N,2322.8846,E,0.16,,260118,,,A*44
$GPGGA,052411.000,4238.5473,N,2322.8838,E,1,0,,,M,,M,,*43
$GPRMC,052411.000,A,4238.5473,N,2322.8838,E,0.35,,260118,,,A*4B
$GPGGA,052412.000,4238.5468,N,2322.8831,E,1,0,,,M,,M,,*43
$GPRMC,052412.000,A,4238.5468,N,2322.8831,E,0.32,,260118,,,A*4C
$GPGGA,052413.000,4238.5466,N,2322.8828,E,1,0,,,M,,M,,*44
$GPRMC,052413.000,A,4238.5466,N,2322.8828,E,0.29,,260118,,,A*41
$GPGGA,052414.000,4238.5466,N,2322.8825,E,1,0,,,M,,M,,*4E
$GPRMC,052414.000,A,4238.5466,N,2322.8825,E,0.30,,260118,,,A*43
$GPGGA,052415.000,4238.5466,N,2322.8821,E,1,0,,,M,,M,,*4B
$GPRMC,052415.000,A,4238.5466,N,2322.8821,E,0.38,,260118,,,A*4E
$GPGGA,052416.000,4238.5464,N,2322.8823,E,1,0,,,M,,M,,*48
$GPRMC,052416.000,A,4238.5464,N,2322.8823,E,0.38,,260118,,,A*4D
$GPGGA,052417.000,4238.5467,N,2322.8826,E,1,0,,,M,,M,,*4F
$GPRMC,052417.000,A,4238.5467,N,2322.8826,E,0.43,,260118,,,A*46
$GPGGA,052418.000,4238.5467,N,2322.8824,E,1,0,,,M,,M,,*42
$GPRMC,052418.000,A,4238.5467,N,2322.8824,E,0.32,,260118,,,A*4D
$GPGGA,052419.000,4238.5467,N,2322.8826,E,1,0,,,M,,M,,*41
$GPRMC,052419.000,A,4238.5467,N,2322.8826,E,0.19,,260118,,,A*47
$GPGGA,052420.000,4238.5468,N,2322.8830,E,1,0,,,M,,M,,*43
$GPRMC,052420.000,A,4238.5468,N,2322.8830,E,0.09,,260118,,,A*44
$GPGGA,052421.000,4238.5472,N,2322.8833,E,1,0,,,M,,M,,*4A
$GPRMC,052421.000,A,4238.5472,N,2322.8833,E,0.10,,260118,,,A*45
$GPGGA,052422.000,4238.5477,N,2322.8841,E,1,0,,,M,,M,,*49
$GPRMC,052422.000,A,4238.5477,N,2322.8841,E,0.17,,260118,,,A*41
$GPGGA,052423.000,4238.5476,N,2322.8842,E,1,0,,,M,,M,,*4A
$GPRMC,052423.000,A,4238.5476,N,2322.8842,E,0.15,,260118,,,A*40
$GPGGA,052424.000,4238.5475,N,2322.8841,E,1,0,,,M,,M,,*4D
$GPRMC,052424.000,A,4238.5475,N,2322.8841,E,0.15,,260118,,,A*47
$GPGGA,052425.000,4238.5477,N,2322.8844,E,1,0,,,M,,M,,*4B
$GPRMC,052425.000,A,4238.5477,N,2322.8844,E,0.11,,260118,,,A*45
$GPGGA,052426.000,4238.5489,N,2322.8873,E,1,0,,,M,,M,,*4D
$GPRMC,052426.000,A,4238.5489,N,2322.8873,E,0.19,,260118,,,A*4B
$GPGGA,052427.000,4238.5490,N,2322.8873,E,1,0,,,M,,M,,*44
$GPRMC,052427.000,A,4238.5490,N,2322.8873,E,0.15,,260118,,,A*4E
$GPGGA,052428.000,4238.5498,N,2322.8887,E,1,0,,,M,,M,,*48
$GPRMC,052428.000,A,4238.5498,N,2322.8887,E,0.17,,260118,,,A*40
$GPGGA,052429.000,4238.5508,N,2322.8909,E,1,0,,,M,,M,,*46
$GPRMC,052429.000,A,4238.5508,N,2322.8909,E,0.42,,260118,,,A*4E
$GPGGA,052430.000,4238.5511,N,2322.8914,E,1,0,,,M,,M,,*4A
$GPRMC,052430.000,A,4238.5511,N,2322.8914,E,0.51,,260118,,,A*40
$GPGGA,052431.000,4238.5507,N,2322.8913,E,1,0,,,M,,M,,*4B
$GPRMC,052431.000,A,4238.5507,N,2322.8913,E,0.49,,260118,,,A*48
$GPGGA,052432.000,4238.5503,N,2322.8913,E,1,0,,,M,,M,,*4C
$GPRMC,052432.000,A,4238.5503,N,2322.8913,E,0.50,,260118,,,A*47
$GPGGA,052433.000,4238.5502,N,2322.8909,E,1,0,,,M,,M,,*47
$GPRMC,052433.000,A,4238.5502,N,2322.8909,E,0.55,,260118,,,A*49
$GPGGA,052434.000,4238.5498,N,2322.8907,E,1,0,,,M,,M,,*4C
$GPRMC,052434.000,A,4238.5498,N,2322.8907,E,0.51,,260118,,,A*46
$GPGGA,052435.000,4238.5496,N,2322.8907,E,1,0,,,M,,M,,*43
$GPRMC,052435.000,A,4238.5496,N,2322.8907,E,0.45,,260118,,,A*4C
$GPGGA,052436.000,4238.5495,N,2322.8906,E,1,0,,,M,,M,,*42
$GPRMC,052436.000,A,4238.5495,N,2322.8906,E,0.46,,260118,,,A*4E
$GPGGA,052437.000,4238.5489,N,2322.8888,E,1,0,,,M,,M,,*49
$GPRMC,052437.000,A,4238.5489,N,2322.8888,E,1.08,,260118,,,A*4E
$GPGGA,052438.000,4238.5488,N,2322.8871,E,1,0,,,M,,M,,*41
$GPRMC,052438.000,A,4238.5488,N,2322.8871,E,0.76,,260118,,,A*4E
$GPGGA,052439.000,4238.5490,N,2322.8860,E,1,0,,,M,,M,,*49
$GPRMC,052439.000,A,4238.5490,N,2322.8860,E,1.88,,260118,,,A*46
$GPGGA,052440.000,4238.5495,N,2322.8857,E,1,0,,,M,,M,,*46
$GPRMC,052440.000,A,4238.5495,N,2322.8857,E,1.94,,260118,,,A*44
$GPGGA,052441.000,4238.5500,N,2322.8848,E,1,0,,,M,,M,,*44
$GPRMC,052441.000,A,4238.5500,N,2322.8848,E,2.56,,260118,,,A*4B
$GPGGA,052442.000,4238.5503,N,2322.8834,E,1,0,,,M,,M,,*4F
$GPRMC,052442.000,A,4238.5503,N,2322.8834,E,1.67,,260118,,,A*41
$GPGGA,052443.000,4238.5508,N,2322.8826,E,1,0,,,M,,M,,*46
$GPRMC,052443.000,A,4238.5508,N,2322.8826,E,2.30,,260118,,,A*49
$GPGGA,052444.000,4238.5512,N,2322.8814,E,1,0,,,M,,M,,*4B
$GPRMC,052444.000,A,4238.5512,N,2322.8814,E,2.96,,260118,,,A*48
$GPGGA,052445.000,4238.5518,N,2322.8808,E,1,0,,,M,,M,,*4D
$GPRMC,052445.000,A,4238.5518,N,2322.8808,E,2.90,,260118,,,A*48
$GPGGA,052446.000,4238.5523,N,2322.8803,E,1,0,,,M,,M,,*4D
$GPRMC,052446.000,A,4238.5523,N,2322.8803,E,2.29,,260118,,,A*4A
$GPGGA,052447.000,4238.5529,N,2322.8787,E,1,0,,,M,,M,,*45
$GPRMC,052447.000,A,4238.5529,N,2322.8787,E,3.34,,260118,,,A*4F
$GPGGA,052448.000,4238.5534,N,2322.8769,E,1,0,,,M,,M,,*46
$GPRMC,052448.000,A,4238.5534,N,2322.8769,E,3.66,,260118,,,A*4B
$GPGGA,052449.000,4238.5541,N,2322.8757,E,1,0,,,M,,M,,*48
$GPRMC,052449.000,A,4238.5541,N,2322.8757,E,3.68,,260118,,,A*4B
$GPGGA,052450.000,4238.5547,N,2322.8750,E,1,0,,,M,,M,,*41
$GPRMC,052450.000,A,4238.5547,N,2322.8750,E,3.63,,260118,,,A*49
$GPGGA,052451.000,4238.5556,N,2322.8746,E,1,0,,,M,,M,,*47
$GPRMC,052451.000,A,4238.5556,N,2322.8746,E,3.94,,260118,,,A*47
$GPGGA,052452.000,4238.5564,N,2322.8743,E,1,0,,,M,,M,,*40
$GPRMC,052452.000,A,4238.5564,N,2322.8743,E,3.50,,260118,,,A*48
$GPGGA,052453.000,4238.5570,N,2322.8739,E,1,0,,,M,,M,,*49
$GPRMC,052453.000,A,4238.5570,N,2322.8739,E,3.14,,260118,,,A*41
$GPGGA,052454.000,4238.5569,N,2322.8738,E,1,0,,,M,,M,,*47
$GPRMC,052454.000,A,4238.5569,N,2322.8738,E,2.19,,260118,,,A*43
$GPGGA,052455.000,4238.5573,N,2322.8729,E,1,0,,,M,,M,,*4D
$GPRMC,052455.000,A,4238.5573,N,2322.8729,E,1.88,,260118,,,A*42
$GPGGA,052456.000,4238.5574,N,2322.8722,E,1,0,,,M,,M,,*42
$GPRMC,052456.000,A,4238.5574,N,2322.8722,E,1.47,,260118,,,A*4E
$GPGGA,052457.000,4238.5581,N,2322.8712,E,1,0,,,M,,M,,*4A
$GPRMC,052457.000,A,4238.5581,N,2322.8712,E,2.25,,260118,,,A*41
$GPGGA,052458.000,4238.5600,N,2322.8701,E,1,0,,,M,,M,,*4D
$GPRMC,052458.000,A,4238.5600,N,2322.8701,E,4.82,,260118,,,A*4D
$GPGGA,052459.000,4238.5618,N,2322.8692,E,1,0,,,M,,M,,*4E
$GPRMC,052459.000,A,4238.5618,N,2322.8692,E,5.17,,260118,,,A*43
$GPGGA,052500.000,4238.5642,N,2322.8700,E,1,0,,,M,,M,,*46
$GPRMC,052500.000,A,4238.5642,N,2322.8700,E,5.24,,260118,,,A*4B
$GPGGA,052501.000,4238.5663,N,2322.8715,E,1,0,,,M,,M,,*40
$GPRMC,052501.000,A,4238.5663,N,2322.8715,E,4.92,,260118,,,A*41
$GPGGA,052502.000,4238.5679,N,2322.8721,E,1,0,,,M,,M,,*4F
$GPRMC,052502.000,A,4238.5679,N,2322.8721,E,4.88,,260118,,,A*45
$GPGGA,052503.000,4238.5691,N,2322.8716,E,1,0,,,M,,M,,*4C
$GPRMC,052503.000,A,4238.5691,N,2322.8716,E,4.07,,260118,,,A*41
$GPGGA,052504.000,4238.5702,N,2322.8710,E,1,0,,,M,,M,,*46
$GPRMC,052504.000,A,4238.5702,N,2322.8710,E,4.00,,260118,,,A*4C
$GPGGA,052505.000,4238.5721,N,2322.8704,E,1,0,,,M,,M,,*43
$GPRMC,052505.000,A,4238.5721,N,2322.8704,E,3.98,,260118,,,A*4F
$GPGGA,052506.000,4238.5743,N,2322.8703,E,1,0,,,M,,M,,*43
$GPRMC,052506.000,A,4238.5743,N,2322.8703,E,4.27,,260118,,,A*4C
$GPGGA,052507.000,4238.5758,N,2322.8695,E,1,0,,,M,,M,,*46
$GPRMC,052507.000,A,4238.5758,N,2322.8695,E,3.83,,260118,,,A*40
$GPGGA,052508.000,4238.5765,N,2322.8676,E,1,0,,,M,,M,,*4A
$GPRMC,052508.000,A,4238.5765,N,2322.8676,E,3.42,,260118,,,A*41
$GPGGA,052509.000,4238.5759,N,2322.8624,E,1,0,,,M,,M,,*43
$GPRMC,052509.000,A,4238.5759,N,2322.8624,E,4.48,,260118,,,A*45
$GPGGA,052510.000,4238.5754,N,2322.8576,E,1,0,,,M,,M,,*42
$GPRMC,052510.000,A,4238.5754,N,2322.8576,E,5.77,,260118,,,A*49
$GPGGA,052511.000,4238.5745,N,2322.8531,E,1,0,,,M,,M,,*40
$GPRMC,052511.000,A,4238.5745,N,2322.8531,E,6.65,,260118,,,A*4B
$GPGGA,052512.000,4238.5737,N,2322.8497,E,1,0,,,M,,M,,*4B
$GPRMC,052512.000,A,4238.5737,N,2322.8497,E,6.97,,260118,,,A*4D
$GPGGA,052513.000,4238.5728,N,2322.8451,E,1,0,,,M,,M,,*4E
$GPRMC,052513.000,A,4238.5728,N,2322.8451,E,7.89,,260118,,,A*46
$GPGGA,052514.000,4238.5721,N,2322.8403,E,1,0,,,M,,M,,*47
$GPRMC,052514.000,A,4238.5721,N,2322.8403,E,8.66,,260118,,,A*41
$GPGGA,052515.000,4238.5721,N,2322.8377,E,1,0,,,M,,M,,*42
$GPRMC,052515.000,A,4238.5721,N,2322.8377,E,7.99,,260118,,,A*4B
$GPGGA,052516.000,4238.5718,N,2322.8360,E,1,0,,,M,,M,,*4D
$GPRMC,052516.000,A,4238.5718,N,2322.8360,E,6.06,,260118,,,A*43
$GPGGA,052517.000,4238.5718,N,2322.8337,E,1,0,,,M,,M,,*4E
$GPRMC,052517.000,A,4238.5718,N,2322.8337,E,5.99,,260118,,,A*45
$GPGGA,052518.000,4238.5719,N,2322.8314,E,1,0,,,M,,M,,*41
$GPRMC,052518.000,A,4238.5719,N,2322.8314,E,6.24,,260118,,,A*4F
$GPGGA,052519.000,4238.5723,N,2322.8291,E,1,0,,,M,,M,,*45
$GPRMC,052519.000,A,4238.5723,N,2322.8291,E,6.22,,260118,,,A*4D
$GPGGA,052520.000,4238.5726,N,2322.8254,E,1,0,,,M,,M,,*43
$GPRMC,052520.000,A,4238.5726,N,2322.8254,E,6.78,,260118,,,A*44
$GPGGA,052521.000,4238.5734,N,2322.8239,E,1,0,,,M,,M,,*4A
$GPRMC,052521.000,A,4238.5734,N,2322.8239,E,6.72,,260118,,,A*47
$GPGGA,052522.000,4238.5730,N,2322.8191,E,1,0,,,M,,M,,*4C
$GPRMC,052522.000,A,4238.5730,N,2322.8191,E,7.67,,260118,,,A*44
$GPGGA,052523.000,4238.5724,N,2322.8137,E,1,0,,,M,,M,,*44
$GPRMC,052523.000,A,4238.5724,N,2322.8137,E,9.52,,260118,,,A*44
$GPGGA,052524.000,4238.5716,N,2322.8081,E,1,0,,,M,,M,,*4E
$GPRMC,052524.000,A,4238.5716,N,2322.8081,E,10.94,,260118,,,A*7C
$GPGGA,052525.000,4238.5705,N,2322.8030,E,1,0,,,M,,M,,*47
$GPRMC,052525.000,A,4238.5705,N,2322.8030,E,11.43,,260118,,,A*7E
$GPGGA,052526.000,4238.5697,N,2322.7989,E,1,0,,,M,,M,,*4A
$GPRMC,052526.000,A,4238.5697,N,2322.7989,E,10.71,,260118,,,A*73
$GPGGA,052527.000,4238.5691,N,2322.7947,E,1,0,,,M,,M,,*4F
$GPRMC,052527.000,A,4238.5691,N,2322.7947,E,9.79,,260118,,,A*46
$GPGGA,052528.000,4238.5688,N,2322.7883,E,1,0,,,M,,M,,*41
$GPRMC,052528.000,A,4238.5688,N,2322.7883,E,10.83,,260118,,,A*75
$GPGGA,052529.000,4238.5701,N,2322.7850,E,1,0,,,M,,M,,*4E
$GPRMC,052529.000,A,4238.5701,N,2322.7850,E,11.14,,260118,,,A*75
$GPGGA,052530.000,4238.5721,N,2322.7814,E,1,0,,,M,,M,,*44
$GPRMC,052530.000,A,4238.5721,N,2322.7814,E,11.36,,260118,,,A*7F
$GPGGA,052531.000,4238.5748,N,2322.7795,E,1,0,,,M,,M,,*4C
$GPRMC,052531.000,A,4238.5748,N,2322.7795,E,11.65,,260118,,,A*71
$GPGGA,052532.000,4238.5779,N,2322.7777,E,1,0,,,M,,M,,*41
$GPRMC,052532.000,A,4238.5779,N,2322.7777,E,12.45,,260118,,,A*7D
$GPGGA,052533.000,4238.5812,N,2322.7762,E,1,0,,,M,,M,,*46
$GPRMC,052533.000,A,4238.5812,N,2322.7762,E,12.76,,260118,,,A*7A
$GPGGA,052534.000,4238.5849,N,2322.7756,E,1,0,,,M,,M,,*48
$GPRMC,052534.000,A,4238.5849,N,2322.7756,E,12.78,,260118,,,A*7A
$GPGGA,052535.000,4238.5885,N,2322.7742,E,1,0,,,M,,M,,*4C
$GPRMC,052535.000,A,4238.5885,N,2322.7742,E,13.27,,260118,,,A*75
$GPGGA,052536.000,4238.5929,N,2322.7715,E,1,0,,,M,,M,,*4A
$GPRMC,052536.000,A,4238.5929,N,2322.7715,E,15.57,,260118,,,A*72
$GPGGA,052537.000,4238.5969,N,2322.7692,E,1,0,,,M,,M,,*41
$GPRMC,052537.000,A,4238.5969,N,2322.7692,E,16.15,,260118,,,A*7C
$GPGGA,052538.000,4238.6012,N,2322.7671,E,1,0,,,M,,M,,*45
$GPRMC,052538.000,A,4238.6012,N,2322.7671,E,16.12,,260118,,,A*7F
$GPGGA,052539.000,4238.6054,N,2322.7642,E,1,0,,,M,,M,,*46
$GPRMC,052539.000,A,4238.6054,N,2322.7642,E,16.47,,260118,,,A*7C
$GPGGA,052540.000,4238.6096,N,2322.7613,E,1,0,,,M,,M,,*42
$GPRMC,052540.000,A,4238.6096,N,2322.7613,E,16.48,,260118,,,A*77
$GPGGA,052541.000,4238.6138,N,2322.7590,E,1,0,,,M,,M,,*4E
$GPRMC,052541.000,A,4238.6138,N,2322.7590,E,16.45,,260118,,,A*76
$GPGGA,052542.000,4238.6179,N,2322.7570,E,1,0,,,M,,M,,*46
$GPRMC,052542.000,A,4238.6179,N,2322.7570,E,16.09,,260118,,,A*76
$GPGGA,052543.000,4238.6219,N,2322.7549,E,1,0,,,M,,M,,*48
$GPRMC,052543.000,A,4238.6219,N,2322.7549,E,15.57,,260118,,,A*70
$GPGGA,052544.000,4238.6258,N,2322.7540,E,1,0,,,M,,M,,*43
$GPRMC,052544.000,A,4238.6258,N,2322.7540,E,14.44,,260118,,,A*78
$GPGGA,052545.000,4238.6294,N,2322.7525,E,1,0,,,M,,M,,*41
$GPRMC,052545.000,A,4238.6294,N,2322.7525,E,13.59,,260118,,,A*71
$GPGGA,052546.000,4238.6323,N,2322.7512,E,1,0,,,M,,M,,*4B
$GPRMC,052546.000,A,4238.6323,N,2322.7512,E,11.68,,260118,,,A*7B
$GPGGA,052547.000,4238.6353,N,2322.7500,E,1,0,,,M,,M,,*4E
$GPRMC,052547.000,A,4238.6353,N,2322.7500,E,11.40,,260118,,,A*74
$GPGGA,052548.000,4238.6378,N,2322.7484,E,1,0,,,M,,M,,*45
$GPRMC,052548.000,A,4238.6378,N,2322.7484,E,9.56,,260118,,,A*41
$GPGGA,052549.000,4238.6400,N,2322.7469,E,1,0,,,M,,M,,*4F
$GPRMC,052549.000,A,4238.6400,N,2322.7469,E,8.81,,260118,,,A*40
$GPGGA,052550.000,4238.6415,N,2322.7461,E,1,0,,,M,,M,,*4B
$GPRMC,052550.000,A,4238.6415,N,2322.7461,E,6.60,,260118,,,A*45
$GPGGA,052551.000,4238.6423,N,2322.7459,E,1,0,,,M,,M,,*44
$GPRMC,052551.000,A,4238.6423,N,2322.7459,E,4.37,,260118,,,A*4A
$GPGGA,052552.000,4238.6430,N,2322.7454,E,1,0,,,M,,M,,*48
$GPRMC,052552.000,A,4238.6430,N,2322.7454,E,2.93,,260118,,,A*4E
$GPGGA,052553.000,4238.6435,N,2322.7437,E,1,0,,,M,,M,,*49
$GPRMC,052553.000,A,4238.6435,N,2322.7437,E,2.25,,260118,,,A*42
$GPGGA,052554.000,4238.6434,N,2322.7396,E,1,0,,,M,,M,,*43
$GPRMC,052554.000,A,4238.6434,N,2322.7396,E,2.28,,260118,,,A*45
$GPGGA,052555.000,4238.6436,N,2322.7366,E,1,0,,,M,,M,,*4F
$GPRMC,052555.000,A,4238.6436,N,2322.7366,E,3.40,,260118,,,A*46
$GPGGA,052556.000,4238.6431,N,2322.7334,E,1,0,,,M,,M,,*4C
$GPRMC,052556.000,A,4238.6431,N,2322.7334,E,4.53,,260118,,,A*40
$GPGGA,052557.000,4238.6422,N,2322.7296,E,1,0,,,M,,M,,*46
$GPRMC,052557.000,A,4238.6422,N,2322.7296,E,5.73,,260118,,,A*49
$GPGGA,052558.000,4238.6408,N,2322.7255,E,1,0,,,M,,M,,*4E
$GPRMC,052558.000,A,4238.6408,N,2322.7255,E,6.78,,260118,,,A*49
$GPGGA,052559.000,4238.6401,N,2322.7219,E,1,0,,,M,,M,,*4E
$GPRMC,052559.000,A,4238.6401,N,2322.7219,E,7.18,,260118,,,A*4E
$GPGGA,052600.000,4238.6403,N,2322.7190,E,1,0,,,M,,M,,*41
$GPRMC,052600.000,A,4238.6403,N,2322.7190,E,6.15,,260118,,,A*4D
$GPGGA,052601.000,4238.6411,N,2322.7169,E,1,0,,,M,,M,,*45
$GPRMC,052601.000,A,4238.6411,N,2322.7169,E,6.46,,260118,,,A*4F
$GPGGA,052602.000,4238.6424,N,2322.7149,E,1,0,,,M,,M,,*42
$GPRMC,052602.000,A,4238.6424,N,2322.7149,E,6.87,,260118,,,A*45
$GPGGA,052603.000,4238.6441,N,2322.7128,E,1,0,,,M,,M,,*47
$GPRMC,052603.000,A,4238.6441,N,2322.7128,E,7.67,,260118,,,A*4F
$GPGGA,052604.000,4238.6466,N,2322.7101,E,1,0,,,M,,M,,*4E
$GPRMC,052604.000,A,4238.6466,N,2322.7101,E,9.36,,260118,,,A*4C
$GPGGA,052605.000,4238.6488,N,2322.7080,E,1,0,,,M,,M,,*47
$GPRMC,052605.000,A,4238.6488,N,2322.7080,E,9.58,,260118,,,A*4D
$GPGGA,052606.000,4238.6518,N,2322.7074,E,1,0,,,M,,M,,*47
$GPRMC,052606.000,A,4238.6518,N,2322.7074,E,9.57,,260118,,,A*42
$GPGGA,052607.000,4238.6551,N,2322.7070,E,1,0,,,M,,M,,*4F
$GPRMC,052607.000,A,4238.6551,N,2322.7070,E,10.10,,260118,,,A*71
$GPGGA,052608.000,4238.6581,N,2322.7050,E,1,0,,,M,,M,,*4F
$GPRMC,052608.000,A,4238.6581,N,2322.7050,E,10.90,,260118,,,A*79
$GPGGA,052609.000,4238.6607,N,2322.7028,E,1,0,,,M,,M,,*4C
$GPRMC,052609.000,A,4238.6607,N,2322.7028,E,11.08,,260118,,,A*7A
$GPGGA,052610.000,4238.6636,N,2322.7001,E,1,0,,,M,,M,,*4D
$GPRMC,052610.000,A,4238.6636,N,2322.7001,E,12.10,,260118,,,A*71
$GPGGA,052611.000,4238.6663,N,2322.6972,E,1,0,,,M,,M,,*40
$GPRMC,052611.000,A,4238.6663,N,2322.6972,E,12.06,,260118,,,A*7B
$GPGGA,052612.000,4238.6692,N,2322.6949,E,1,0,,,M,,M,,*45
$GPRMC,052612.000,A,4238.6692,N,2322.6949,E,11.27,,260118,,,A*7E
$GPGGA,052613.000,4238.6716,N,2322.6928,E,1,0,,,M,,M,,*4E
$GPRMC,052613.000,A,4238.6716,N,2322.6928,E,10.48,,260118,,,A*7D
$GPGGA,052614.000,4238.6738,N,2322.6911,E,1,0,,,M,,M,,*4F
$GPRMC,052614.000,A,4238.6738,N,2322.6911,E,9.63,,260118,,,A*4D
$GPGGA,052615.000,4238.6759,N,2322.6894,E,1,0,,,M,,M,,*45
$GPRMC,052615.000,A,4238.6759,N,2322.6894,E,9.01,,260118,,,A*43
$GPGGA,052616.000,4238.6772,N,2322.6881,E,1,0,,,M,,M,,*4B
$GPRMC,052616.000,A,4238.6772,N,2322.6881,E,7.72,,260118,,,A*47
$GPGGA,052617.000,4238.6791,N,2322.6866,E,1,0,,,M,,M,,*4E
$GPRMC,052617.000,A,4238.6791,N,2322.6866,E,7.69,,260118,,,A*48
$GPGGA,052618.000,4238.6807,N,2322.6851,E,1,0,,,M,,M,,*45
$GPRMC,052618.000,A,4238.6807,N,2322.6851,E,7.72,,260118,,,A*49
$GPGGA,052619.000,4238.6820,N,2322.6836,E,1,0,,,M,,M,,*40
$GPRMC,052619.000,A,4238.6820,N,2322.6836,E,7.19,,260118,,,A*41
$GPGGA,052620.000,4238.6833,N,2322.6818,E,1,0,,,M,,M,,*44
$GPRMC,052620.000,A,4238.6833,N,2322.6818,E,7.15,,260118,,,A*49
$GPGGA,052621.000,4238.6889,N,2322.6819,E,1,0,,,M,,M,,*45
$GPRMC,052621.000,A,4238.6889,N,2322.6819,E,9.38,,260118,,,A*49
$GPGGA,052622.000,4238.6925,N,2322.6802,E,1,0,,,M,,M,,*4B
$GPRMC,052622.000,A,4238.6925,N,2322.6802,E,10.37,,260118,,,A*70
$GPGGA,052623.000,4238.6957,N,2322.6782,E,1,0,,,M,,M,,*48
$GPRMC,052623.000,A,4238.6957,N,2322.6782,E,11.06,,260118,,,A*70
$GPGGA,052624.000,4238.6988,N,2322.6762,E,1,0,,,M,,M,,*43
$GPRMC,052624.000,A,4238.6988,N,2322.6762,E,11.65,,260118,,,A*7E
$GPGGA,052625.000,4238.7023,N,2322.6736,E,1,0,,,M,,M,,*4A
$GPRMC,052625.000,A,4238.7023,N,2322.6736,E,13.49,,260118,,,A*7B
$GPGGA,052626.000,4238.7053,N,2322.6715,E,1,0,,,M,,M,,*4F
$GPRMC,052626.000,A,4238.7053,N,2322.6715,E,12.77,,260118,,,A*72
$GPGGA,052627.000,4238.7081,N,2322.6681,E,1,0,,,M,,M,,*4D
$GPRMC,052627.000,A,4238.7081,N,2322.6681,E,12.57,,260118,,,A*72
$GPGGA,052628.000,4238.7116,N,2322.6654,E,1,0,,,M,,M,,*45
$GPRMC,052628.000,A,4238.7116,N,2322.6654,E,13.23,,260118,,,A*78
$GPGGA,052629.000,4238.7152,N,2322.6615,E,1,0,,,M,,M,,*41
$GPRMC,052629.000,A,4238.7152,N,2322.6615,E,14.49,,260118,,,A*77
$GPGGA,052630.000,4238.7187,N,2322.6583,E,1,0,,,M,,M,,*4D
$GPRMC,052630.000,A,4238.7187,N,2322.6583,E,14.49,,260118,,,A*7B
$GPGGA,052631.000,4238.7226,N,2322.6558,E,1,0,,,M,,M,,*42
$GPRMC,052631.000,A,4238.7226,N,2322.6558,E,14.47,,260118,,,A*7A
$GPGGA,052632.000,4238.7259,N,2322.6527,E,1,0,,,M,,M,,*41
$GPRMC,052632.000,A,4238.7259,N,2322.6527,E,13.81,,260118,,,A*74
$GPGGA,052633.000,4238.7292,N,2322.6492,E,1,0,,,M,,M,,*48
$GPRMC,052633.000,A,4238.7292,N,2322.6492,E,13.87,,260118,,,A*7B
$GPGGA,052634.000,4238.7323,N,2322.6459,E,1,0,,,M,,M,,*43
$GPRMC,052634.000,A,4238.7323,N,2322.6459,E,13.53,,260118,,,A*79
$GPGGA,052635.000,4238.7350,N,2322.6426,E,1,0,,,M,,M,,*4E
$GPRMC,052635.000,A,4238.7350,N,2322.6426,E,12.76,,260118,,,A*72
$GPGGA,052636.000,4238.7375,N,2322.6391,E,1,0,,,M,,M,,*41
$GPRMC,052636.000,A,4238.7375,N,2322.6391,E,12.24,,260118,,,A*7A
$GPGGA,052637.000,4238.7398,N,2322.6357,E,1,0,,,M,,M,,*49
$GPRMC,052637.000,A,4238.7398,N,2322.6357,E,11.95,,260118,,,A*7B
$GPGGA,052638.000,4238.7420,N,2322.6327,E,1,0,,,M,,M,,*45
$GPRMC,052638.000,A,4238.7420,N,2322.6327,E,11.24,,260118,,,A*7D
$GPGGA,052639.000,4238.7446,N,2322.6284,E,1,0,,,M,,M,,*4C
$GPRMC,052639.000,A,4238.7446,N,2322.6284,E,12.44,,260118,,,A*71
$GPGGA,052640.000,4238.7471,N,2322.6243,E,1,0,,,M,,M,,*4D
$GPRMC,052640.000,A,4238.7471,N,2322.6243,E,12.86,,260118,,,A*7E
$GPGGA,052641.000,4238.7496,N,2322.6202,E,1,0,,,M,,M,,*40
$GPRMC,052641.000,A,4238.7496,N,2322.6202,E,12.90,,260118,,,A*74
$GPGGA,052642.000,4238.7519,N,2322.6163,E,1,0,,,M,,M,,*41
$GPRMC,052642.000,A,4238.7519,N,2322.6163,E,12.74,,260118,,,A*7F
$GPGGA,052643.000,4238.7541,N,2322.6122,E,1,0,,,M,,M,,*48
$GPRMC,052643.000,A,4238.7541,N,2322.6122,E,13.19,,260118,,,A*7C
$GPGGA,052644.000,4238.7598,N,2322.6104,E,1,0,,,M,,M,,*4F
$GPRMC,052644.000,A,4238.7598,N,2322.6104,E,13.53,,260118,,,A*75
$GPGGA,052645.000,4238.7620,N,2322.6068,E,1,0,,,M,,M,,*45
$GPRMC,052645.000,A,4238.7620,N,2322.6068,E,13.52,,260118,,,A*7E
$GPGGA,052646.000,4238.7634,N,2322.6021,E,1,0,,,M,,M,,*4E
$GPRMC,052646.000,A,4238.7634,N,2322.6021,E,11.92,,260118,,,A*7B
$GPGGA,052647.000,4238.7654,N,2322.5980,E,1,0,,,M,,M,,*48
$GPRMC,052647.000,A,4238.7654,N,2322.5980,E,11.99,,260118,,,A*76
$GPGGA,052648.000,4238.7673,N,2322.5947,E,1,0,,,M,,M,,*49
$GPRMC,052648.000,A,4238.7673,N,2322.5947,E,11.92,,260118,,,A*7C
$GPGGA,052649.000,4238.7695,N,2322.5914,E,1,0,,,M,,M,,*46
$GPRMC,052649.000,A,4238.7695,N,2322.5914,E,12.34,,260118,,,A*7C
$GPGGA,052650.000,4238.7719,N,2322.5878,E,1,0,,,M,,M,,*40
$GPRMC,052650.000,A,4238.7719,N,2322.5878,E,13.37,,260118,,,A*78
$GPGGA,052651.000,4238.7747,N,2322.5835,E,1,0,,,M,,M,,*43
$GPRMC,052651.000,A,4238.7747,N,2322.5835,E,14.62,,260118,,,A*7C
$GPGGA,052652.000,4238.7774,N,2322.5792,E,1,0,,,M,,M,,*42
$GPRMC,052652.000,A,4238.7774,N,2322.5792,E,15.39,,260118,,,A*72
$GPGGA,052653.000,4238.7797,N,2322.5741,E,1,0,,,M,,M,,*40
$GPRMC,052653.000,A,4238.7797,N,2322.5741,E,15.72,,260118,,,A*7F
$GPGGA,052654.000,4238.7818,N,2322.5692,E,1,0,,,M,,M,,*40
$GPRMC,052654.000,A,4238.7818,N,2322.5692,E,15.36,,260118,,,A*7F
$GPGGA,052655.000,4238.7837,N,2322.5646,E,1,0,,,M,,M,,*45
$GPRMC,052655.000,A,4238.7837,N,2322.5646,E,15.18,,260118,,,A*76
$GPGGA,052656.000,4238.7850,N,2322.5600,E,1,0,,,M,,M,,*45
$GPRMC,052656.000,A,4238.7850,N,2322.5600,E,15.34,,260118,,,A*78
$GPGGA,052657.000,4238.7849,N,2322.5535,E,1,0,,,M,,M,,*49
$GPRMC,052657.000,A,4238.7849,N,2322.5535,E,15.28,,260118,,,A*79
$GPGGA,052658.000,4238.7858,N,2322.5483,E,1,0,,,M,,M,,*4A
$GPRMC,052658.000,A,4238.7858,N,2322.5483,E,14.30,,260118,,,A*72
$GPGGA,052659.000,4238.7868,N,2322.5436,E,1,0,,,M,,M,,*46
$GPRMC,052659.000,A,4238.7868,N,2322.5436,E,13.45,,260118,,,A*7B
$GPGGA,052700.000,4238.7876,N,2322.5404,E,1,0,,,M,,M,,*45
$GPRMC,052700.000,A,4238.7876,N,2322.5404,E,13.13,,260118,,,A*7B
$GPGGA,052701.000,4238.7888,N,2322.5372,E,1,0,,,M,,M,,*43
$GPRMC,052701.000,A,4238.7888,N,2322.5372,E,14.07,,260118,,,A*7F
$GPGGA,052702.000,4238.7901,N,2322.5336,E,1,0,,,M,,M,,*40
$GPRMC,052702.000,A,4238.7901,N,2322.5336,E,14.02,,260118,,,A*79
$GPGGA,052703.000,4238.7923,N,2322.5316,E,1,0,,,M,,M,,*43
$GPRMC,052703.000,A,4238.7923,N,2322.5316,E,13.86,,260118,,,A*71
$GPGGA,052704.000,4238.7946,N,2322.5298,E,1,0,,,M,,M,,*40
$GPRMC,052704.000,A,4238.7946,N,2322.5298,E,14.54,,260118,,,A*7A
$GPGGA,052705.000,4238.7963,N,2322.5261,E,1,0,,,M,,M,,*40
$GPRMC,052705.000,A,4238.7963,N,2322.5261,E,15.12,,260118,,,A*79
$GPGGA,052706.000,4238.7977,N,2322.5215,E,1,0,,,M,,M,,*45
$GPRMC,052706.000,A,4238.7977,N,2322.5215,E,15.51,,260118,,,A*7B
$GPGGA,052707.000,4238.7988,N,2322.5162,E,1,0,,,M,,M,,*47
$GPRMC,052707.000,A,4238.7988,N,2322.5162,E,15.17,,260118,,,A*7B
$GPGGA,052708.000,4238.8007,N,2322.5145,E,1,0,,,M,,M,,*4C
$GPRMC,052708.000,A,4238.8007,N,2322.5145,E,13.28,,260118,,,A*7A
$GPGGA,052709.000,4238.8015,N,2322.5104,E,1,0,,,M,,M,,*4B
$GPRMC,052709.000,A,4238.8015,N,2322.5104,E,12.44,,260118,,,A*76
$GPGGA,052710.000,4238.8022,N,2322.5066,E,1,0,,,M,,M,,*42
$GPRMC,052710.000,A,4238.8022,N,2322.5066,E,11.87,,260118,,,A*73
$GPGGA,052711.000,4238.8027,N,2322.5029,E,1,0,,,M,,M,,*4D
$GPRMC,052711.000,A,4238.8027,N,2322.5029,E,11.18,,260118,,,A*7A
$GPGGA,052712.000,4238.8030,N,2322.5000,E,1,0,,,M,,M,,*43
$GPRMC,052712.000,A,4238.8030,N,2322.5000,E,9.38,,260118,,,A*4F
$GPGGA,052713.000,4238.8032,N,2322.4973,E,1,0,,,M,,M,,*4C
$GPRMC,052713.000,A,4238.8032,N,2322.4973,E,8.73,,260118,,,A*4E
$GPGGA,052714.000,4238.8033,N,2322.4949,E,1,0,,,M,,M,,*43
$GPRMC,052714.000,A,4238.8033,N,2322.4949,E,8.00,,260118,,,A*45
$GPGGA,052715.000,4238.8033,N,2322.4931,E,1,0,,,M,,M,,*4D
$GPRMC,052715.000,A,4238.8033,N,2322.4931,E,6.65,,260118,,,A*46
$GPGGA,052716.000,4238.8034,N,2322.4922,E,1,0,,,M,,M,,*4B
$GPRMC,052716.000,A,4238.8034,N,2322.4922,E,5.87,,260118,,,A*4F
$GPGGA,052717.000,4238.8034,N,2322.4910,E,1,0,,,M,,M,,*4B
$GPRMC,052717.000,A,4238.8034,N,2322.4910,E,5.66,,260118,,,A*40
$GPGGA,052718.000,4238.8033,N,2322.4900,E,1,0,,,M,,M,,*42
$GPRMC,052718.000,A,4238.8033,N,2322.4900,E,5.10,,260118,,,A*48
$GPGGA,052719.000,4238.8033,N,2322.4887,E,1,0,,,M,,M,,*4D
$GPRMC,052719.000,A,4238.8033,N,2322.4887,E,5.28,,260118,,,A*4C
$GPGGA,052720.000,4238.8033,N,2322.4880,E,1,0,,,M,,M,,*40
$GPRMC,052720.000,A,4238.8033,N,2322.4880,E,5.21,,260118,,,A*48
$GPGGA,052721.000,4238.8030,N,2322.4871,E,1,0,,,M,,M,,*4C
$GPRMC,052721.000,A,4238.8030,N,2322.4871,E,4.95,,260118,,,A*4A
$GPGGA,052722.000,4238.8028,N,2322.4860,E,1,0,,,M,,M,,*46
$GPRMC,052722.000,A,4238.8028,N,2322.4860,E,4.66,,260118,,,A*4C
$GPGGA,052723.000,4238.8028,N,2322.4848,E,1,0,,,M,,M,,*4D
$GPRMC,052723.000,A,4238.8028,N,2322.4848,E,5.22,,260118,,,A*46
$GPGGA,052724.000,4238.8028,N,2322.4829,E,1,0,,,M,,M,,*4D
$GPRMC,052724.000,A,4238.8028,N,2322.4829,E,5.93,,260118,,,A*4C
$GPGGA,052725.000,4238.8032,N,2322.4808,E,1,0,,,M,,M,,*44
$GPRMC,052725.000,A,4238.8032,N,2322.4808,E,6.68,,260118,,,A*42
$GPGGA,052726.000,4238.8036,N,2322.4784,E,1,0,,,M,,M,,*48
$GPRMC,052726.000,A,4238.8036,N,2322.4784,E,7.21,,260118,,,A*42
$GPGGA,052727.000,4238.8042,N,2322.4763,E,1,0,,,M,,M,,*43
$GPRMC,052727.000,A,4238.8042,N,2322.4763,E,6.98,,260118,,,A*4A
$GPGGA,052728.000,4238.8087,N,2322.4769,E,1,0,,,M,,M,,*4F
$GPRMC,052728.000,A,4238.8087,N,2322.4769,E,8.73,,260118,,,A*4D
$GPGGA,052729.000,4238.8107,N,2322.4751,E,1,0,,,M,,M,,*4C
$GPRMC,052729.000,A,4238.8107,N,2322.4751,E,9.03,,260118,,,A*48
$GPGGA,052730.000,4238.8133,N,2322.4737,E,1,0,,,M,,M,,*43
$GPRMC,052730.000,A,4238.8133,N,2322.4737,E,9.83,,260118,,,A*4F
$GPGGA,052731.000,4238.8174,N,2322.4750,E,1,0,,,M,,M,,*40
$GPRMC,052731.000,A,4238.8174,N,2322.4750,E,9.82,,260118,,,A*4D
$GPGGA,052732.000,4238.8213,N,2322.4751,E,1,0,,,M,,M,,*40
$GPRMC,052732.000,A,4238.8213,N,2322.4751,E,10.73,,260118,,,A*7B
$GPGGA,052733.000,4238.8254,N,2322.4759,E,1,0,,,M,,M,,*4A
$GPRMC,052733.000,A,4238.8254,N,2322.4759,E,11.06,,260118,,,A*72
$GPGGA,052734.000,4238.8277,N,2322.4757,E,1,0,,,M,,M,,*42
$GPRMC,052734.000,A,4238.8277,N,2322.4757,E,10.22,,260118,,,A*7D
$GPGGA,052735.000,4238.8301,N,2322.4742,E,1,0,,,M,,M,,*47
$GPRMC,052735.000,A,4238.8301,N,2322.4742,E,11.02,,260118,,,A*7B
$GPGGA,052736.000,4238.8330,N,2322.4733,E,1,0,,,M,,M,,*40
$GPRMC,052736.000,A,4238.8330,N,2322.4733,E,11.52,,260118,,,A*79
$GPGGA,052737.000,4238.8354,N,2322.4716,E,1,0,,,M,,M,,*44
$GPRMC,052737.000,A,4238.8354,N,2322.4716,E,11.47,,260118,,,A*79
$GPGGA,052738.000,4238.8382,N,2322.4694,E,1,0,,,M,,M,,*4B
$GPRMC,052738.000,A,4238.8382,N,2322.4694,E,12.53,,260118,,,A*70
$GPGGA,052739.000,4238.8411,N,2322.4674,E,1,0,,,M,,M,,*49
$GPRMC,052739.000,A,4238.8411,N,2322.4674,E,12.85,,260118,,,A*79
$GPGGA,052740.000,4238.8449,N,2322.4644,E,1,0,,,M,,M,,*49
$GPRMC,052740.000,A,4238.8449,N,2322.4644,E,14.71,,260118,,,A*74
$GPGGA,052741.000,4238.8480,N,2322.4616,E,1,0,,,M,,M,,*4A
$GPRMC,052741.000,A,4238.8480,N,2322.4616,E,14.63,,260118,,,A*74
$GPGGA,052742.000,4238.8509,N,2322.4594,E,1,0,,,M,,M,,*40
$GPRMC,052742.000,A,4238.8509,N,2322.4594,E,13.91,,260118,,,A*74
$GPGGA,052743.000,4238.8538,N,2322.4576,E,1,0,,,M,,M,,*4F
$GPRMC,052743.000,A,4238.8538,N,2322.4576,E,13.30,,260118,,,A*70
$GPGGA,052744.000,4238.8567,N,2322.4555,E,1,0,,,M,,M,,*43
$GPRMC,052744.000,A,4238.8567,N,2322.4555,E,13.05,,260118,,,A*7A
$GPGGA,052745.000,4238.8596,N,2322.4533,E,1,0,,,M,,M,,*4C
$GPRMC,052745.000,A,4238.8596,N,2322.4533,E,12.89,,260118,,,A*70
$GPGGA,052746.000,4238.8629,N,2322.4512,E,1,0,,,M,,M,,*4B
$GPRMC,052746.000,A,4238.8629,N,2322.4512,E,13.45,,260118,,,A*76
$GPGGA,052747.000,4238.8659,N,2322.4496,E,1,0,,,M,,M,,*40
$GPRMC,052747.000,A,4238.8659,N,2322.4496,E,13.08,,260118,,,A*74
$GPGGA,052748.000,4238.8692,N,2322.4487,E,1,0,,,M,,M,,*48
$GPRMC,052748.000,A,4238.8692,N,2322.4487,E,12.71,,260118,,,A*73
$GPGGA,052749.000,4238.8720,N,2322.4479,E,1,0,,,M,,M,,*40
$GPRMC,052749.000,A,4238.8720,N,2322.4479,E,11.42,,260118,,,A*78
$GPGGA,052750.000,4238.8745,N,2322.4466,E,1,0,,,M,,M,,*45
$GPRMC,052750.000,A,4238.8745,N,2322.4466,E,10.79,,260118,,,A*74
$GPGGA,052751.000,4238.8765,N,2322.4449,E,1,0,,,M,,M,,*4B
$GPRMC,052751.000,A,4238.8765,N,2322.4449,E,10.15,,260118,,,A*70
$GPGGA,052752.000,4238.8779,N,2322.4433,E,1,0,,,M,,M,,*48
$GPRMC,052752.000,A,4238.8779,N,2322.4433,E,9.19,,260118,,,A*47
$GPGGA,052753.000,4238.8791,N,2322.4429,E,1,0,,,M,,M,,*44
$GPRMC,052753.000,A,4238.8791,N,2322.4429,E,8.19,,260118,,,A*4A
$GPGGA,052754.000,4238.8797,N,2322.4418,E,1,0,,,M,,M,,*47
$GPRMC,052754.000,A,4238.8797,N,2322.4418,E,7.56,,260118,,,A*4D
$GPGGA,052755.000,4238.8804,N,2322.4402,E,1,0,,,M,,M,,*48
$GPRMC,052755.000,A,4238.8804,N,2322.4402,E,7.60,,260118,,,A*47
$GPGGA,052756.000,4238.8809,N,2322.4386,E,1,0,,,M,,M,,*4D
$GPRMC,052756.000,A,4238.8809,N,2322.4386,E,7.76,,260118,,,A*45
$GPGGA,052757.000,4238.8809,N,2322.4378,E,1,0,,,M,,M,,*4D
$GPRMC,052757.000,A,4238.8809,N,2322.4378,E,7.69,,260118,,,A*4B
$GPGGA,052758.000,4238.8812,N,2322.4378,E,1,0,,,M,,M,,*48
$GPRMC,052758.000,A,4238.8812,N,2322.4378,E,7.14,,260118,,,A*44
$GPGGA,052759.000,4238.8810,N,2322.4373,E,1,0,,,M,,M,,*40
$GPRMC,052759.000,A,4238.8810,N,2322.4373,E,7.21,,260118,,,A*4A
$GPGGA,052800.000,4238.8806,N,2322.4378,E,1,0,,,M,,M,,*4F
$GPRMC,052800.000,A,4238.8806,N,2322.4378,E,7.04,,260118,,,A*42
$GPGGA,052801.000,4238.8808,N,2322.4364,E,1,0,,,M,,M,,*4D
$GPRMC,052801.000,A,4238.8808,N,2322.4364,E,7.59,,260118,,,A*48
$GPGGA,052802.000,4238.8815,N,2322.4344,E,1,0,,,M,,M,,*40
$GPRMC,052802.000,A,4238.8815,N,2322.4344,E,8.35,,260118,,,A*40
$GPGGA,052803.000,4238.8821,N,2322.4336,E,1,0,,,M,,M,,*43
$GPRMC,052803.000,A,4238.8821,N,2322.4336,E,8.09,,260118,,,A*4C
$GPGGA,052804.000,4238.8824,N,2322.4322,E,1,0,,,M,,M,,*44
$GPRMC,052804.000,A,4238.8824,N,2322.4322,E,7.80,,260118,,,A*45
$GPGGA,052805.000,4238.8825,N,2322.4312,E,1,0,,,M,,M,,*47
$GPRMC,052805.000,A,4238.8825,N,2322.4312,E,7.11,,260118,,,A*4E
$GPGGA,052806.000,4238.8827,N,2322.4303,E,1,0,,,M,,M,,*46
$GPRMC,052806.000,A,4238.8827,N,2322.4303,E,6.84,,260118,,,A*42
$GPGGA,052807.000,4238.8830,N,2322.4301,E,1,0,,,M,,M,,*43
$GPRMC,052807.000,A,4238.8830,N,2322.4301,E,5.96,,260118,,,A*47
$GPGGA,052808.000,4238.8836,N,2322.4296,E,1,0,,,M,,M,,*45
$GPRMC,052808.000,A,4238.8836,N,2322.4296,E,6.59,,260118,,,A*41
$GPGGA,052809.000,4238.8855,N,2322.4289,E,1,0,,,M,,M,,*4F
$GPRMC,052809.000,A,4238.8855,N,2322.4289,E,10.13,,260118,,,A*72
$GPGGA,052810.000,4238.8875,N,2322.4277,E,1,0,,,M,,M,,*44
$GPRMC,052810.000,A,4238.8875,N,2322.4277,E,12.86,,260118,,,A*77
$GPGGA,052811.000,4238.8929,N,2322.4331,E,1,0,,,M,,M,,*4E
$GPRMC,052811.000,A,4238.8929,N,2322.4331,E,12.57,,260118,,,A*71
$GPGGA,052812.000,4238.8964,N,2322.4360,E,1,0,,,M,,M,,*40
$GPRMC,052812.000,A,4238.8964,N,2322.4360,E,11.60,,260118,,,A*78
$GPGGA,052813.000,4238.8988,N,2322.4387,E,1,0,,,M,,M,,*4A
$GPRMC,052813.000,A,4238.8988,N,2322.4387,E,10.61,,260118,,,A*72
$GPGGA,052814.000,4238.9014,N,2322.4429,E,1,0,,,M,,M,,*43
$GPRMC,052814.000,A,4238.9014,N,2322.4429,E,9.72,,260118,,,A*41
$GPGGA,052815.000,4238.9027,N,2322.4418,E,1,0,,,M,,M,,*40
$GPRMC,052815.000,A,4238.9027,N,2322.4418,E,9.52,,260118,,,A*40
$GPGGA,052816.000,4238.9034,N,2322.4398,E,1,0,,,M,,M,,*4E
$GPRMC,052816.000,A,4238.9034,N,2322.4398,E,8.13,,260118,,,A*4A
$GPGGA,052817.000,4238.9040,N,2322.4379,E,1,0,,,M,,M,,*43
$GPRMC,052817.000,A,4238.9040,N,2322.4379,E,7.94,,260118,,,A*47
$GPGGA,052818.000,4238.9043,N,2322.4359,E,1,0,,,M,,M,,*4D
$GPRMC,052818.000,A,4238.9043,N,2322.4359,E,8.23,,260118,,,A*4A
$GPGGA,052819.000,4238.9048,N,2322.4346,E,1,0,,,M,,M,,*49
$GPRMC,052819.000,A,4238.9048,N,2322.4346,E,7.59,,260118,,,A*4C
$GPGGA,052820.000,4238.9054,N,2322.4333,E,1,0,,,M,,M,,*4C
$GPRMC,052820.000,A,4238.9054,N,2322.4333,E,7.33,,260118,,,A*45
$GPGGA,052821.000,4238.9063,N,2322.4352,E,1,0,,,M,,M,,*4E
$GPRMC,052821.000,A,4238.9063,N,2322.4352,E,5.22,,260118,,,A*45
$GPGGA,052822.000,4238.9068,N,2322.4339,E,1,0,,,M,,M,,*4B
$GPRMC,052822.000,A,4238.9068,N,2322.4339,E,5.51,,260118,,,A*44
$GPGGA,052823.000,4238.9071,N,2322.4329,E,1,0,,,M,,M,,*43
$GPRMC,052823.000,A,4238.9071,N,2322.4329,E,5.07,,260118,,,A*4F
$GPGGA,052824.000,4238.9081,N,2322.4322,E,1,0,,,M,,M,,*40
$GPRMC,052824.000,A,4238.9081,N,2322.4322,E,4.16,,260118,,,A*4D
$GPGGA,052825.000,4238.9090,N,2322.4313,E,1,0,,,M,,M,,*43
$GPRMC,052825.000,A,4238.9090,N,2322.4313,E,4.20,,260118,,,A*4B
$GPGGA,052826.000,4238.9102,N,2322.4304,E,1,0,,,M,,M,,*4C
$GPRMC,052826.000,A,4238.9102,N,2322.4304,E,3.45,,260118,,,A*40
$GPGGA,052827.000,4238.9117,N,2322.4309,E,1,0,,,M,,M,,*44
$GPRMC,052827.000,A,4238.9117,N,2322.4309,E,4.03,,260118,,,A*4D
$GPGGA,052828.000,4238.9130,N,2322.4297,E,1,0,,,M,,M,,*48
$GPRMC,052828.000,A,4238.9130,N,2322.4297,E,4.50,,260118,,,A*47
$GPGGA,052829.000,4238.9142,N,2322.4296,E,1,0,,,M,,M,,*4D
$GPRMC,052829.000,A,4238.9142,N,2322.4296,E,4.15,,260118,,,A*43
$GPGGA,052830.000,4238.9158,N,2322.4303,E,1,0,,,M,,M,,*43
$GPRMC,052830.000,A,4238.9158,N,2322.4303,E,4.55,,260118,,,A*49
$GPGGA,052831.000,4238.9171,N,2322.4301,E,1,0,,,M,,M,,*4B
$GPRMC,052831.000,A,4238.9171,N,2322.4301,E,4.84,,260118,,,A*4D
$GPGGA,052832.000,4238.9183,N,2322.4300,E,1,0,,,M,,M,,*44
$GPRMC,052832.000,A,4238.9183,N,2322.4300,E,4.27,,260118,,,A*4B
$GPGGA,052833.000,4238.9198,N,2322.4299,E,1,0,,,M,,M,,*4E
$GPRMC,052833.000,A,4238.9198,N,2322.4299,E,4.74,,260118,,,A*47
$GPGGA,052834.000,4238.9209,N,2322.4302,E,1,0,,,M,,M,,*41
$GPRMC,052834.000,A,4238.9209,N,2322.4302,E,4.49,,260118,,,A*46
$GPGGA,052835.000,4238.9220,N,2322.4300,E,1,0,,,M,,M,,*49
$GPRMC,052835.000,A,4238.9220,N,2322.4300,E,4.77,,260118,,,A*43
$GPGGA,052836.000,4238.9231,N,2322.4311,E,1,0,,,M,,M,,*4A
$GPRMC,052836.000,A,4238.9231,N,2322.4311,E,4.30,,260118,,,A*43
$GPGGA,052837.000,4238.9240,N,2322.4329,E,1,0,,,M,,M,,*46
$GPRMC,052837.000,A,4238.9240,N,2322.4329,E,2.76,,260118,,,A*4B
$GPGGA,052838.000,4238.9251,N,2322.4340,E,1,0,,,M,,M,,*46
$GPRMC,052838.000,A,4238.9251,N,2322.4340,E,3.23,,260118,,,A*4A
$GPGGA,052839.000,4238.9261,N,2322.4353,E,1,0,,,M,,M,,*46
$GPRMC,052839.000,A,4238.9261,N,2322.4353,E,3.08,,260118,,,A*43
$GPGGA,052840.000,4238.9271,N,2322.4362,E,1,0,,,M,,M,,*4B
$GPRMC,052840.000,A,4238.9271,N,2322.4362,E,3.10,,260118,,,A*47
$GPGGA,052841.000,4238.9283,N,2322.4370,E,1,0,,,M,,M,,*44
$GPRMC,052841.000,A,4238.9283,N,2322.4370,E,3.67,,260118,,,A*48
$GPGGA,052842.000,4238.9294,N,2322.4381,E,1,0,,,M,,M,,*4F
$GPRMC,052842.000,A,4238.9294,N,2322.4381,E,3.47,,260118,,,A*41
$GPGGA,052843.000,4238.9307,N,2322.4392,E,1,0,,,M,,M,,*47
$GPRMC,052843.000,A,4238.9307,N,2322.4392,E,3.52,,260118,,,A*4D
$GPGGA,052844.000,4238.9319,N,2322.4402,E,1,0,,,M,,M,,*41
$GPRMC,052844.000,A,4238.9319,N,2322.4402,E,3.52,,260118,,,A*4B
$GPGGA,052845.000,4238.9333,N,2322.4413,E,1,0,,,M,,M,,*48
$GPRMC,052845.000,A,4238.9333,N,2322.4413,E,3.60,,260118,,,A*43
$GPGGA,052846.000,4238.9344,N,2322.4421,E,1,0,,,M,,M,,*4A
$GPRMC,052846.000,A,4238.9344,N,2322.4421,E,3.63,,260118,,,A*42
$GPGGA,052847.000,4238.9354,N,2322.4430,E,1,0,,,M,,M,,*4A
$GPRMC,052847.000,A,4238.9354,N,2322.4430,E,3.83,,260118,,,A*4C
$GPGGA,052848.000,4238.9368,N,2322.4431,E,1,0,,,M,,M,,*4B
$GPRMC,052848.000,A,4238.9368,N,2322.4431,E,5.03,,260118,,,A*43
$GPGGA,052849.000,4238.9372,N,2322.4432,E,1,0,,,M,,M,,*42
$GPRMC,052849.000,A,4238.9372,N,2322.4432,E,5.05,,260118,,,A*4C
$GPGGA,052850.000,4238.9376,N,2322.4426,E,1,0,,,M,,M,,*4B
$GPRMC,052850.000,A,4238.9376,N,2322.4426,E,5.31,,260118,,,A*42
$GPGGA,052851.000,4238.9380,N,2322.4413,E,1,0,,,M,,M,,*45
$GPRMC,052851.000,A,4238.9380,N,2322.4413,E,6.80,,260118,,,A*45
$GPGGA,052852.000,4238.9380,N,2322.4397,E,1,0,,,M,,M,,*4D
$GPRMC,052852.000,A,4238.9380,N,2322.4397,E,8.48,,260118,,,A*47
$GPGGA,052853.000,4238.9378,N,2322.4368,E,1,0,,,M,,M,,*4B
$GPRMC,052853.000,A,4238.9378,N,2322.4368,E,9.21,,260118,,,A*4F
$GPGGA,052854.000,4238.9367,N,2322.4346,E,1,0,,,M,,M,,*4E
$GPRMC,052854.000,A,4238.9367,N,2322.4346,E,10.52,,260118,,,A*76
$GPGGA,052855.000,4238.9357,N,2322.4310,E,1,0,,,M,,M,,*4F
$GPRMC,052855.000,A,4238.9357,N,2322.4310,E,12.23,,260118,,,A*73
$GPGGA,052856.000,4238.9376,N,2322.4281,E,1,0,,,M,,M,,*46
$GPRMC,052856.000,A,4238.9376,N,2322.4281,E,15.53,,260118,,,A*7A
$GPGGA,052857.000,4238.9385,N,2322.4236,E,1,0,,,M,,M,,*47
$GPRMC,052857.000,A,4238.9385,N,2322.4236,E,15.22,,260118,,,A*7D
$GPGGA,052858.000,4238.9389,N,2322.4205,E,1,0,,,M,,M,,*44
$GPRMC,052858.000,A,4238.9389,N,2322.4205,E,12.81,,260118,,,A*70
$GPGGA,052859.000,4238.9397,N,2322.4172,E,1,0,,,M,,M,,*49
$GPRMC,052859.000,A,4238.9397,N,2322.4172,E,12.25,,260118,,,A*73
$GPGGA,052900.000,4238.9407,N,2322.4146,E,1,0,,,M,,M,,*4D
$GPRMC,052900.000,A,4238.9407,N,2322.4146,E,11.10,,260118,,,A*72
$GPGGA,052901.000,4238.9409,N,2322.4121,E,1,0,,,M,,M,,*43
$GPRMC,052901.000,A,4238.9409,N,2322.4121,E,10.83,,260118,,,A*77
$GPGGA,052902.000,4238.9411,N,2322.4095,E,1,0,,,M,,M,,*47
$GPRMC,052902.000,A,4238.9411,N,2322.4095,E,11.04,,260118,,,A*7D
$GPGGA,052903.000,4238.9410,N,2322.4074,E,1,0,,,M,,M,,*48
$GPRMC,052903.000,A,4238.9410,N,2322.4074,E,10.71,,260118,,,A*71
$GPGGA,052904.000,4238.9417,N,2322.4042,E,1,0,,,M,,M,,*4D
$GPRMC,052904.000,A,4238.9417,N,2322.4042,E,12.26,,260118,,,A*74
$GPGGA,052905.000,4238.9463,N,2322.4016,E,1,0,,,M,,M,,*4E
$GPRMC,052905.000,A,4238.9463,N,2322.4016,E,13.20,,260118,,,A*70
$GPGGA,052906.000,4238.9473,N,2322.3979,E,1,0,,,M,,M,,*4B
$GPRMC,052906.000,A,4238.9473,N,2322.3979,E,14.56,,260118,,,A*73
$GPGGA,052907.000,4238.9486,N,2322.3921,E,1,0,,,M,,M,,*4D
$GPRMC,052907.000,A,4238.9486,N,2322.3921,E,17.28,,260118,,,A*7F
$GPGGA,052908.000,4238.9500,N,2322.3856,E,1,0,,,M,,M,,*4C
$GPRMC,052908.000,A,4238.9500,N,2322.3856,E,19.75,,260118,,,A*78
$GPGGA,052909.000,4238.9511,N,2322.3800,E,1,0,,,M,,M,,*4E
$GPRMC,052909.000,A,4238.9511,N,2322.3800,E,20.02,,260118,,,A*70
$GPGGA,052910.000,4238.9520,N,2322.3744,E,1,0,,,M,,M,,*4B
$GPRMC,052910.000,A,4238.9520,N,2322.3744,E,20.09,,260118,,,A*7E
$GPGGA,052911.000,4238.9522,N,2322.3683,E,1,0,,,M,,M,,*42
$GPRMC,052911.000,A,4238.9522,N,2322.3683,E,20.29,,260118,,,A*75
$GPGGA,052912.000,4238.9523,N,2322.3624,E,1,0,,,M,,M,,*4D
$GPRMC,052912.000,A,4238.9523,N,2322.3624,E,20.47,,260118,,,A*72
$GPGGA,052913.000,4238.9523,N,2322.3552,E,1,0,,,M,,M,,*4E
$GPRMC,052913.000,A,4238.9523,N,2322.3552,E,22.04,,260118,,,A*74
$GPGGA,052914.000,4238.9518,N,2322.3486,E,1,0,,,M,,M,,*49
$GPRMC,052914.000,A,4238.9518,N,2322.3486,E,22.23,,260118,,,A*76
$GPGGA,052915.000,4238.9508,N,2322.3425,E,1,0,,,M,,M,,*40
$GPRMC,052915.000,A,4238.9508,N,2322.3425,E,22.20,,260118,,,A*7C
$GPGGA,052916.000,4238.9494,N,2322.3357,E,1,0,,,M,,M,,*45
$GPRMC,052916.000,A,4238.9494,N,2322.3357,E,22.48,,260118,,,A*77
$GPGGA,052942.000,4239.0438,N,2322.2651,E,1,0,,,M,,M,,*48
$GPRMC,052942.000,A,4239.0438,N,2322.2651,E,22.34,,260118,,,A*71
$GPGGA,052943.000,4239.0524,N,2322.2738,E,1,0,,,M,,M,,*4B
$GPRMC,052943.000,A,4239.0524,N,2322.2738,E,21.53,,260118,,,A*70
$GPGGA,052944.000,4239.0569,N,2322.2775,E,1,0,,,M,,M,,*4C
$GPRMC,052944.000,A,4239.0569,N,2322.2775,E,21.32,,260118,,,A*70
$GPGGA,052945.000,4239.0612,N,2322.2922,E,1,0,,,M,,M,,*4E
$GPRMC,052945.000,A,4239.0612,N,2322.2922,E,20.15,,260118,,,A*76
$GPGGA,052946.000,4239.0630,N,2322.3027,E,1,0,,,M,,M,,*40
$GPRMC,052946.000,A,4239.0630,N,2322.3027,E,18.82,,260118,,,A*7D
$GPGGA,052947.000,4239.0657,N,2322.3018,E,1,0,,,M,,M,,*4C
$GPRMC,052947.000,A,4239.0657,N,2322.3018,E,18.80,,260118,,,A*73
$GPGGA,052948.000,4239.0679,N,2322.2990,E,1,0,,,M,,M,,*47
$GPRMC,052948.000,A,4239.0679,N,2322.2990,E,18.75,,260118,,,A*72
$GPGGA,052949.000,4239.0700,N,2322.2964,E,1,0,,,M,,M,,*42
$GPRMC,052949.000,A,4239.0700,N,2322.2964,E,18.34,,260118,,,A*72
$GPGGA,052950.000,4239.0717,N,2322.2938,E,1,0,,,M,,M,,*45
$GPRMC,052950.000,A,4239.0717,N,2322.2938,E,17.85,,260118,,,A*70
$GPGGA,052951.000,4239.0725,N,2322.2915,E,1,0,,,M,,M,,*4A
$GPRMC,052951.000,A,4239.0725,N,2322.2915,E,16.92,,260118,,,A*78
$GPGGA,052952.000,4239.0725,N,2322.2889,E,1,0,,,M,,M,,*4D
$GPRMC,052952.000,A,4239.0725,N,2322.2889,E,15.40,,260118,,,A*73
$GPGGA,052953.000,4239.0721,N,2322.2856,E,1,0,,,M,,M,,*4A
$GPRMC,052953.000,A,4239.0721,N,2322.2856,E,15.42,,260118,,,A*76
$GPGGA,052954.000,4239.0712,N,2322.2842,E,1,0,,,M,,M,,*48
$GPRMC,052954.000,A,4239.0712,N,2322.2842,E,12.16,,260118,,,A*72
$GPGGA,052955.000,4239.0704,N,2322.2826,E,1,0,,,M,,M,,*4C
$GPRMC,052955.000,A,4239.0704,N,2322.2826,E,10.28,,260118,,,A*79
$GPGGA,052956.000,4239.0694,N,2322.2808,E,1,0,,,M,,M,,*4B
$GPRMC,052956.000,A,4239.0694,N,2322.2808,E,9.92,,260118,,,A*47
$GPGGA,052957.000,4239.0683,N,2322.2788,E,1,0,,,M,,M,,*4B
$GPRMC,052957.000,A,4239.0683,N,2322.2788,E,10.15,,260118,,,A*70
$GPGGA,052958.000,4239.0673,N,2322.2773,E,1,0,,,M,,M,,*4F
$GPRMC,052958.000,A,4239.0673,N,2322.2773,E,10.11,,260118,,,A*70
$GPGGA,052959.000,4239.0655,N,2322.2754,E,1,0,,,M,,M,,*4F
$GPRMC,052959.000,A,4239.0655,N,2322.2754,E,10.64,,260118,,,A*72
$GPGGA,053000.000,4239.0661,N,2322.2765,E,1,0,,,M,,M,,*4E
$GPRMC,053000.000,A,4239.0661,N,2322.2765,E,10.59,,260118,,,A*7D
$GPGGA,053001.000,4239.0674,N,2322.2785,E,1,0,,,M,,M,,*45
$GPRMC,053001.000,A,4239.0674,N,2322.2785,E,12.02,,260118,,,A*7A
$GPGGA,053002.000,4239.0670,N,2322.2748,E,1,0,,,M,,M,,*43
$GPRMC,053002.000,A,4239.0670,N,2322.2748,E,13.81,,260118,,,A*76
$GPGGA,053004.000,4239.0676,N,2322.2661,E,1,0,,,M,,M,,*49
$GPRMC,053004.000,A,4239.0676,N,2322.2661,E,17.55,,260118,,,A*71
$GPGGA,053005.000,4239.0678,N,2322.2610,E,1,0,,,M,,M,,*40
$GPRMC,053005.000,A,4239.0678,N,2322.2610,E,19.58,,260118,,,A*7B
$GPGGA,053006.000,4239.0706,N,2322.2605,E,1,0,,,M,,M,,*4F
$GPRMC,053006.000,A,4239.0706,N,2322.2605,E,20.37,,260118,,,A*77
$GPGGA,053007.000,4239.0737,N,2322.2597,E,1,0,,,M,,M,,*44
$GPRMC,053007.000,A,4239.0737,N,2322.2597,E,20.99,,260118,,,A*78
$GPGGA,053008.000,4239.0771,N,2322.2597,E,1,0,,,M,,M,,*49
$GPRMC,053008.000,A,4239.0771,N,2322.2597,E,21.04,,260118,,,A*70
$GPGGA,053010.000,4239.0849,N,2322.2593,E,1,0,,,M,,M,,*40
$GPRMC,053010.000,A,4239.0849,N,2322.2593,E,21.35,,260118,,,A*7B
$GPGGA,053011.000,4239.0933,N,2322.2643,E,1,0,,,M,,M,,*43
$GPRMC,053011.000,A,4239.0933,N,2322.2643,E,20.99,,260118,,,A*7F
$GPGGA,053012.000,4239.1048,N,2322.2820,E,1,0,,,M,,M,,*4F
$GPRMC,053012.000,A,4239.1048,N,2322.2820,E,19.69,,260118,,,A*76
$GPGGA,053014.000,4239.1142,N,2322.2986,E,1,0,,,M,,M,,*4F
$GPRMC,053014.000,A,4239.1142,N,2322.2986,E,19.02,,260118,,,A*7B
$GPGGA,053015.000,4239.1180,N,2322.3022,E,1,0,,,M,,M,,*46
$GPRMC,053015.000,A,4239.1180,N,2322.3022,E,17.81,,260118,,,A*77
$GPGGA,053016.000,4239.1203,N,2322.3019,E,1,0,,,M,,M,,*45
$GPRMC,053016.000,A,4239.1203,N,2322.3019,E,17.44,,260118,,,A*7D
$GPGGA,053017.000,4239.1246,N,2322.3017,E,1,0,,,M,,M,,*4B
$GPRMC,053017.000,A,4239.1246,N,2322.3017,E,19.59,,260118,,,A*71
$GPGGA,053018.000,4239.1285,N,2322.3041,E,1,0,,,M,,M,,*48
$GPRMC,053018.000,A,4239.1285,N,2322.3041,E,18.41,,260118,,,A*7A
$GPGGA,053019.000,4239.1315,N,2322.3067,E,1,0,,,M,,M,,*45
$GPRMC,053019.000,A,4239.1315,N,2322.3067,E,17.16,,260118,,,A*7A
$GPGGA,053021.000,4239.1383,N,2322.3020,E,1,0,,,M,,M,,*42
$GPRMC,053021.000,A,4239.1383,N,2322.3020,E,19.03,,260118,,,A*77
$GPGGA,053022.000,4239.1416,N,2322.2990,E,1,0,,,M,,M,,*49
$GPRMC,053022.000,A,4239.1416,N,2322.2990,E,20.66,,260118,,,A*75
$GPGGA,053023.000,4239.1441,N,2322.2952,E,1,0,,,M,,M,,*44
$GPRMC,053023.000,A,4239.1441,N,2322.2952,E,21.17,,260118,,,A*7F
$GPGGA,053024.000,4239.1463,N,2322.2883,E,1,0,,,M,,M,,*4E
$GPRMC,053024.000,A,4239.1463,N,2322.2883,E,21.43,,260118,,,A*74
$GPGGA,053026.000,4239.1504,N,2322.2745,E,1,0,,,M,,M,,*49
$GPRMC,053026.000,A,4239.1504,N,2322.2745,E,21.29,,260118,,,A*7F
$GPGGA,053027.000,4239.1524,N,2322.2671,E,1,0,,,M,,M,,*4C
$GPRMC,053027.000,A,4239.1524,N,2322.2671,E,20.78,,260118,,,A*7F
$GPGGA,053028.000,4239.1539,N,2322.2597,E,1,0,,,M,,M,,*44
$GPRMC,053028.000,A,4239.1539,N,2322.2597,E,20.83,,260118,,,A*73
$GPGGA,053029.000,4239.1553,N,2322.2524,E,1,0,,,M,,M,,*41
$GPRMC,053029.000,A,4239.1553,N,2322.2524,E,20.78,,260118,,,A*72
$GPGGA,053030.000,4239.1564,N,2322.2453,E,1,0,,,M,,M,,*4C
$GPRMC,053030.000,A,4239.1564,N,2322.2453,E,20.40,,260118,,,A*74
$GPGGA,053031.000,4239.1572,N,2322.2387,E,1,0,,,M,,M,,*44
$GPRMC,053031.000,A,4239.1572,N,2322.2387,E,19.42,,260118,,,A*74
$GPGGA,053032.000,4239.1575,N,2322.2317,E,1,0,,,M,,M,,*49
$GPRMC,053032.000,A,4239.1575,N,2322.2317,E,19.59,,260118,,,A*73
$GPGGA,053033.000,4239.1647,N,2322.2306,E,1,0,,,M,,M,,*4A
$GPRMC,053033.000,A,4239.1647,N,2322.2306,E,19.21,,260118,,,A*7F
$GPGGA,053034.000,4239.1709,N,2322.2291,E,1,0,,,M,,M,,*49
$GPRMC,053034.000,A,4239.1709,N,2322.2291,E,19.24,,260118,,,A*79
$GPGGA,053035.000,4239.1744,N,2322.2248,E,1,0,,,M,,M,,*45
$GPRMC,053035.000,A,4239.1744,N,2322.2248,E,19.04,,260118,,,A*77
$GPGGA,053036.000,4239.1766,N,2322.2205,E,1,0,,,M,,M,,*4F
$GPRMC,053036.000,A,4239.1766,N,2322.2205,E,18.46,,260118,,,A*7A
$GPGGA,053037.000,4239.1773,N,2322.2146,E,1,0,,,M,,M,,*4E
$GPRMC,053037.000,A,4239.1773,N,2322.2146,E,18.09,,260118,,,A*70
$GPGGA,053038.000,4239.1775,N,2322.2101,E,1,0,,,M,,M,,*44
$GPRMC,053038.000,A,4239.1775,N,2322.2101,E,16.50,,260118,,,A*78
$GPGGA,053040.000,4239.1784,N,2322.2003,E,1,0,,,M,,M,,*46
$GPRMC,053040.000,A,4239.1784,N,2322.2003,E,15.88,,260118,,,A*7C
$GPGGA,053041.000,4239.1789,N,2322.1961,E,1,0,,,M,,M,,*44
$GPRMC,053041.000,A,4239.1789,N,2322.1961,E,15.41,,260118,,,A*7B
$GPGGA,053042.000,4239.1793,N,2322.1916,E,1,0,,,M,,M,,*4C
$GPRMC,053042.000,A,4239.1793,N,2322.1916,E,15.41,,260118,,,A*73
$GPGGA,053043.000,4239.1796,N,2322.1878,E,1,0,,,M,,M,,*41
$GPRMC,053043.000,A,4239.1796,N,2322.1878,E,15.06,,260118,,,A*7D
$GPGGA,053044.000,4239.1796,N,2322.1872,E,1,0,,,M,,M,,*4C
$GPRMC,053044.000,A,4239.1796,N,2322.1872,E,14.30,,260118,,,A*74
$GPGGA,053045.000,4239.1787,N,2322.1836,E,1,0,,,M,,M,,*4D
$GPRMC,053045.000,A,4239.1787,N,2322.1836,E,13.28,,260118,,,A*7B
$GPGGA,053046.000,4239.1779,N,2322.1797,E,1,0,,,M,,M,,*4B
$GPRMC,053046.000,A,4239.1779,N,2322.1797,E,12.85,,260118,,,A*7B
$GPGGA,053047.000,4239.1778,N,2322.1764,E,1,0,,,M,,M,,*47
$GPRMC,053047.000,A,4239.1778,N,2322.1764,E,12.80,,260118,,,A*72
$GPGGA,053048.000,4239.1777,N,2322.1724,E,1,0,,,M,,M,,*43
$GPRMC,053048.000,A,4239.1777,N,2322.1724,E,13.15,,260118,,,A*7B
$GPGGA,053050.000,4239.1773,N,2322.1679,E,1,0,,,M,,M,,*47
$GPRMC,053050.000,A,4239.1773,N,2322.1679,E,13.29,,260118,,,A*70
$GPGGA,053051.000,4239.1776,N,2322.1662,E,1,0,,,M,,M,,*49
$GPRMC,053051.000,A,4239.1776,N,2322.1662,E,12.91,,260118,,,A*7C
$GPGGA,053053.000,4239.1773,N,2322.1629,E,1,0,,,M,,M,,*41
$GPRMC,053053.000,A,4239.1773,N,2322.1629,E,12.74,,260118,,,A*7F
$GPGGA,053054.000,4239.1765,N,2322.1592,E,1,0,,,M,,M,,*42
$GPRMC,053054.000,A,4239.1765,N,2322.1592,E,12.71,,260118,,,A*79
$GPGGA,053055.000,4239.1755,N,2322.1542,E,1,0,,,M,,M,,*4D
$GPRMC,053055.000,A,4239.1755,N,2322.1542,E,12.74,,260118,,,A*73
$GPGGA,053056.000,4239.1743,N,2322.1504,E,1,0,,,M,,M,,*4B
$GPRMC,053056.000,A,4239.1743,N,2322.1504,E,11.99,,260118,,,A*75
$GPGGA,053057.000,4239.1731,N,2322.1467,E,1,0,,,M,,M,,*4B
$GPRMC,053057.000,A,4239.1731,N,2322.1467,E,11.72,,260118,,,A*70
$GPGGA,053058.000,4239.1717,N,2322.1431,E,1,0,,,M,,M,,*43
$GPRMC,053058.000,A,4239.1717,N,2322.1431,E,11.68,,260118,,,A*73
$GPGGA,053059.000,4239.1703,N,2322.1393,E,1,0,,,M,,M,,*48
$GPRMC,053059.000,A,4239.1703,N,2322.1393,E,11.64,,260118,,,A*74
$GPGGA,053100.000,4239.1690,N,2322.1353,E,1,0,,,M,,M,,*42
$GPRMC,053100.000,A,4239.1690,N,2322.1353,E,11.66,,260118,,,A*7C
$GPGGA,053101.000,4239.1680,N,2322.1315,E,1,0,,,M,,M,,*40
$GPRMC,053101.000,A,4239.1680,N,2322.1315,E,11.67,,260118,,,A*7F
$GPGGA,053102.000,4239.1671,N,2322.1278,E,1,0,,,M,,M,,*47
$GPRMC,053102.000,A,4239.1671,N,2322.1278,E,11.63,,260118,,,A*7C
$GPGGA,053103.000,4239.1666,N,2322.1240,E,1,0,,,M,,M,,*4B
$GPRMC,053103.000,A,4239.1666,N,2322.1240,E,12.31,,260118,,,A*74
$GPGGA,053104.000,4239.1660,N,2322.1211,E,1,0,,,M,,M,,*4E
$GPRMC,053104.000,A,4239.1660,N,2322.1211,E,12.61,,260118,,,A*74
$GPGGA,053105.000,4239.1655,N,2322.1182,E,1,0,,,M,,M,,*40
$GPRMC,053105.000,A,4239.1655,N,2322.1182,E,12.56,,260118,,,A*7E
$GPGGA,053106.000,4239.1651,N,2322.1156,E,1,0,,,M,,M,,*4E
$GPRMC,053106.000,A,4239.1651,N,2322.1156,E,12.80,,260118,,,A*7B
$GPGGA,053107.000,4239.1662,N,2322.1114,E,1,0,,,M,,M,,*49
$GPRMC,053107.000,A,4239.1662,N,2322.1114,E,14.27,,260118,,,A*77
$GPGGA,053108.000,4239.1670,N,2322.1134,E,1,0,,,M,,M,,*47
$GPRMC,053108.000,A,4239.1670,N,2322.1134,E,13.61,,260118,,,A*7C
$GPGGA,053109.000,4239.1671,N,2322.1144,E,1,0,,,M,,M,,*40
$GPRMC,053109.000,A,4239.1671,N,2322.1144,E,13.64,,260118,,,A*7E
$GPGGA,053110.000,4239.1671,N,2322.1143,E,1,0,,,M,,M,,*4F
$GPRMC,053110.000,A,4239.1671,N,2322.1143,E,13.24,,260118,,,A*75
$GPGGA,053111.000,4239.1674,N,2322.1144,E,1,0,,,M,,M,,*4C
$GPRMC,053111.000,A,4239.1674,N,2322.1144,E,13.83,,260118,,,A*7B
$GPGGA,053112.000,4239.1673,N,2322.1149,E,1,0,,,M,,M,,*45
$GPRMC,053112.000,A,4239.1673,N,2322.1149,E,13.83,,260118,,,A*72
$GPGGA,053113.000,4239.1671,N,2322.1149,E,1,0,,,M,,M,,*46
$GPRMC,053113.000,A,4239.1671,N,2322.1149,E,13.52,,260118,,,A*7D
$GPGGA,053114.000,4239.1669,N,2322.1130,E,1,0,,,M,,M,,*46
$GPRMC,053114.000,A,4239.1669,N,2322.1130,E,13.17,,260118,,,A*7C
$GPGGA,053115.000,4239.1664,N,2322.1108,E,1,0,,,M,,M,,*41
$GPRMC,053115.000,A,4239.1664,N,2322.1108,E,12.92,,260118,,,A*77
$GPGGA,053116.000,4239.1656,N,2322.1080,E,1,0,,,M,,M,,*42
$GPRMC,053116.000,A,4239.1656,N,2322.1080,E,12.62,,260118,,,A*7B
$GPGGA,053117.000,4239.1648,N,2322.1055,E,1,0,,,M,,M,,*44
$GPRMC,053117.000,A,4239.1648,N,2322.1055,E,12.59,,260118,,,A*75
$GPGGA,053118.000,4239.1642,N,2322.1031,E,1,0,,,M,,M,,*43
$GPRMC,053118.000,A,4239.1642,N,2322.1031,E,12.90,,260118,,,A*77
$GPGGA,053119.000,4239.1977,N,2322.1177,E,1,0,,,M,,M,,*48
$GPRMC,053119.000,A,4239.1977,N,2322.1177,E,15.64,,260118,,,A*70
$GPGGA,053120.000,4239.2093,N,2322.0888,E,1,0,,,M,,M,,*4A
$GPRMC,053120.000,A,4239.2093,N,2322.0888,E,14.88,,260118,,,A*71
$GPGGA,053121.000,4239.2120,N,2322.0881,E,1,0,,,M,,M,,*4B
$GPRMC,053121.000,A,4239.2120,N,2322.0881,E,14.53,,260118,,,A*76
$GPGGA,053122.000,4239.2139,N,2322.0875,E,1,0,,,M,,M,,*4B
$GPRMC,053122.000,A,4239.2139,N,2322.0875,E,14.47,,260118,,,A*73
$GPGGA,053123.000,4239.2149,N,2322.0860,E,1,0,,,M,,M,,*49
$GPRMC,053123.000,A,4239.2149,N,2322.0860,E,14.46,,260118,,,A*70
$GPGGA,053124.000,4239.2156,N,2322.0850,E,1,0,,,M,,M,,*43
$GPRMC,053124.000,A,4239.2156,N,2322.0850,E,14.69,,260118,,,A*77
$GPGGA,053126.000,4239.2191,N,2322.0969,E,1,0,,,M,,M,,*41
$GPRMC,053126.000,A,4239.2191,N,2322.0969,E,13.77,,260118,,,A*7D
$GPGGA,053127.000,4239.2198,N,2322.1052,E,1,0,,,M,,M,,*49
$GPRMC,053127.000,A,4239.2198,N,2322.1052,E,13.56,,260118,,,A*76
$GPGGA,053128.000,4239.2204,N,2322.1116,E,1,0,,,M,,M,,*41
$GPRMC,053128.000,A,4239.2204,N,2322.1116,E,13.07,,260118,,,A*7A
$GPGGA,053129.000,4239.2207,N,2322.1166,E,1,0,,,M,,M,,*44
$GPRMC,053129.000,A,4239.2207,N,2322.1166,E,13.06,,260118,,,A*7E
$GPGGA,053130.000,4239.2211,N,2322.1271,E,1,0,,,M,,M,,*4E
$GPRMC,053130.000,A,4239.2211,N,2322.1271,E,12.63,,260118,,,A*76
$GPGGA,053131.000,4239.2216,N,2322.1361,E,1,0,,,M,,M,,*48
$GPRMC,053131.000,A,4239.2216,N,2322.1361,E,12.71,,260118,,,A*73
$GPGGA,053133.000,4239.2225,N,2322.1405,E,1,0,,,M,,M,,*4F
$GPRMC,053133.000,A,4239.2225,N,2322.1405,E,12.69,,260118,,,A*7D
$GPGGA,053135.000,4239.2236,N,2322.1421,E,1,0,,,M,,M,,*4D
$GPRMC,053135.000,A,4239.2236,N,2322.1421,E,12.47,,260118,,,A*73
$GPGGA,053136.000,4239.2242,N,2322.1424,E,1,0,,,M,,M,,*48
$GPRMC,053136.000,A,4239.2242,N,2322.1424,E,12.49,,260118,,,A*78
$GPGGA,053137.000,4239.2248,N,2322.1423,E,1,0,,,M,,M,,*44
$GPRMC,053137.000,A,4239.2248,N,2322.1423,E,12.31,,260118,,,A*7B
$GPGGA,053139.000,4239.2260,N,2322.1412,E,1,0,,,M,,M,,*42
$GPRMC,053139.000,A,4239.2260,N,2322.1412,E,11.99,,260118,,,A*7C
$GPGGA,053140.000,4239.2266,N,2322.1409,E,1,0,,,M,,M,,*40
$GPRMC,053140.000,A,4239.2266,N,2322.1409,E,12.16,,260118,,,A*7A
$GPGGA,053141.000,4239.2276,N,2322.1424,E,1,0,,,M,,M,,*4F
$GPRMC,053141.000,A,4239.2276,N,2322.1424,E,12.40,,260118,,,A*76
$GPGGA,053142.000,4239.2277,N,2322.1397,E,1,0,,,M,,M,,*42
$GPRMC,053142.000,A,4239.2277,N,2322.1397,E,12.96,,260118,,,A*70
$GPGGA,053143.000,4239.2282,N,2322.1360,E,1,0,,,M,,M,,*41
$GPRMC,053143.000,A,4239.2282,N,2322.1360,E,14.18,,260118,,,A*73
$GPGGA,053144.000,4239.2289,N,2322.1314,E,1,0,,,M,,M,,*4E
$GPRMC,053144.000,A,4239.2289,N,2322.1314,E,15.51,,260118,,,A*70
$GPGGA,053145.000,4239.2302,N,2322.1263,E,1,0,,,M,,M,,*4C
$GPRMC,053145.000,A,4239.2302,N,2322.1263,E,17.29,,260118,,,A*7F
$GPGGA,053146.000,4239.2315,N,2322.1204,E,1,0,,,M,,M,,*48
$GPRMC,053146.000,A,4239.2315,N,2322.1204,E,18.25,,260118,,,A*78
$GPGGA,053147.000,4239.2327,N,2322.1141,E,1,0,,,M,,M,,*4A
$GPRMC,053147.000,A,4239.2327,N,2322.1141,E,19.08,,260118,,,A*74
$GPGGA,053148.000,4239.2340,N,2322.1120,E,1,0,,,M,,M,,*43
$GPRMC,053148.000,A,4239.2340,N,2322.1120,E,19.60,,260118,,,A*73
$GPGGA,053149.000,4239.2357,N,2322.1154,E,1,0,,,M,,M,,*47
$GPRMC,053149.000,A,4239.2357,N,2322.1154,E,20.09,,260118,,,A*72
$GPGGA,053150.000,4239.2371,N,2322.1132,E,1,0,,,M,,M,,*4B
$GPRMC,053150.000,A,4239.2371,N,2322.1132,E,20.26,,260118,,,A*73
$GPGGA,053151.000,4239.2390,N,2322.1226,E,1,0,,,M,,M,,*43
$GPRMC,053151.000,A,4239.2390,N,2322.1226,E,19.61,,260118,,,A*72
$GPGGA,053152.000,4239.2400,N,2322.1315,E,1,0,,,M,,M,,*4F
$GPRMC,053152.000,A,4239.2400,N,2322.1315,E,17.71,,260118,,,A*71
$GPGGA,053153.000,4239.2410,N,2322.1449,E,1,0,,,M,,M,,*41
$GPRMC,053153.000,A,4239.2410,N,2322.1449,E,16.37,,260118,,,A*7C
$GPGGA,053154.000,4239.2429,N,2322.1468,E,1,0,,,M,,M,,*4F
$GPRMC,053154.000,A,4239.2429,N,2322.1468,E,16.53,,260118,,,A*70
$GPGGA,053155.000,4239.2452,N,2322.1468,E,1,0,,,M,,M,,*42
$GPRMC,053155.000,A,4239.2452,N,2322.1468,E,16.78,,260118,,,A*74
$GPGGA,053156.000,4239.2472,N,2322.1527,E,1,0,,,M,,M,,*49
$GPRMC,053156.000,A,4239.2472,N,2322.1527,E,16.73,,260118,,,A*74
$GPGGA,053157.000,4239.2509,N,2322.1493,E,1,0,,,M,,M,,*4B
$GPRMC,053157.000,A,4239.2509,N,2322.1493,E,18.75,,260118,,,A*7E
$GPGGA,053158.000,4239.2536,N,2322.1487,E,1,0,,,M,,M,,*4D
$GPRMC,053158.000,A,4239.2536,N,2322.1487,E,18.36,,260118,,,A*7F
$GPGGA,053159.000,4239.2562,N,2322.1511,E,1,0,,,M,,M,,*43
$GPRMC,053159.000,A,4239.2562,N,2322.1511,E,18.80,,260118,,,A*7C
$GPGGA,053200.000,4239.2591,N,2322.1543,E,1,0,,,M,,M,,*47
$GPRMC,053200.000,A,4239.2591,N,2322.1543,E,18.40,,260118,,,A*74
$GPGGA,053201.000,4239.2623,N,2322.1568,E,1,0,,,M,,M,,*45
$GPRMC,053201.000,A,4239.2623,N,2322.1568,E,18.56,,260118,,,A*71
$GPGGA,053202.000,4239.2656,N,2322.1575,E,1,0,,,M,,M,,*48
$GPRMC,053202.000,A,4239.2656,N,2322.1575,E,18.56,,260118,,,A*7C
$GPGGA,053203.000,4239.2688,N,2322.1552,E,1,0,,,M,,M,,*4F
$GPRMC,053203.000,A,4239.2688,N,2322.1552,E,18.28,,260118,,,A*72
$GPGGA,053204.000,4239.2721,N,2322.1570,E,1,0,,,M,,M,,*4A
$GPRMC,053204.000,A,4239.2721,N,2322.1570,E,18.32,,260118,,,A*7C
$GPGGA,053205.000,4239.2750,N,2322.1544,E,1,0,,,M,,M,,*4A
$GPRMC,053205.000,A,4239.2750,N,2322.1544,E,17.61,,260118,,,A*75
$GPGGA,053206.000,4239.2785,N,2322.1539,E,1,0,,,M,,M,,*4B
$GPRMC,053206.000,A,4239.2785,N,2322.1539,E,18.36,,260118,,,A*79
$GPGGA,053207.000,4239.2817,N,2322.1489,E,1,0,,,M,,M,,*44
$GPRMC,053207.000,A,4239.2817,N,2322.1489,E,18.58,,260118,,,A*7E
$GPGGA,053208.000,4239.2855,N,2322.1431,E,1,0,,,M,,M,,*4E
$GPRMC,053208.000,A,4239.2855,N,2322.1431,E,19.81,,260118,,,A*71
$GPGGA,053209.000,4239.2892,N,2322.1376,E,1,0,,,M,,M,,*40
$GPRMC,053209.000,A,4239.2892,N,2322.1376,E,19.74,,260118,,,A*75
$GPGGA,053210.000,4239.2926,N,2322.1328,E,1,0,,,M,,M,,*4D
$GPRMC,053210.000,A,4239.2926,N,2322.1328,E,19.96,,260118,,,A*74
$GPGGA,053211.000,4239.2964,N,2322.1272,E,1,0,,,M,,M,,*44
$GPRMC,053211.000,A,4239.2964,N,2322.1272,E,20.55,,260118,,,A*78
$GPGGA,053212.000,4239.3001,N,2322.1223,E,1,0,,,M,,M,,*48
$GPRMC,053212.000,A,4239.3001,N,2322.1223,E,20.22,,260118,,,A*74
$GPGGA,053213.000,4239.3038,N,2322.1168,E,1,0,,,M,,M,,*4F
$GPRMC,053213.000,A,4239.3038,N,2322.1168,E,20.98,,260118,,,A*72
$GPGGA,053214.000,4239.3076,N,2322.1116,E,1,0,,,M,,M,,*4B
$GPRMC,053214.000,A,4239.3076,N,2322.1116,E,20.99,,260118,,,A*77
$GPGGA,053215.000,4239.3110,N,2322.1059,E,1,0,,,M,,M,,*41
$GPRMC,053215.000,A,4239.3110,N,2322.1059,E,21.00,,260118,,,A*7C
$GPGGA,053216.000,4239.3147,N,2322.1019,E,1,0,,,M,,M,,*44
$GPRMC,053216.000,A,4239.3147,N,2322.1019,E,20.27,,260118,,,A*7D
$GPGGA,053217.000,4239.3181,N,2322.0974,E,1,0,,,M,,M,,*4C
$GPRMC,053217.000,A,4239.3181,N,2322.0974,E,20.21,,260118,,,A*73
$GPGGA,053218.000,4239.3220,N,2322.0923,E,1,0,,,M,,M,,*49
$GPRMC,053218.000,A,4239.3220,N,2322.0923,E,21.59,,260118,,,A*78
$GPGGA,053219.000,4239.3258,N,2322.0868,E,1,0,,,M,,M,,*49
$GPRMC,053219.000,A,4239.3258,N,2322.0868,E,22.28,,260118,,,A*7D
$GPGGA,053220.000,4239.3296,N,2322.0814,E,1,0,,,M,,M,,*4A
$GPRMC,053220.000,A,4239.3296,N,2322.0814,E,22.68,,260118,,,A*7A
$GPGGA,053221.000,4239.3331,N,2322.0759,E,1,0,,,M,,M,,*41
$GPRMC,053221.000,A,4239.3331,N,2322.0759,E,22.69,,260118,,,A*70
$GPGGA,053222.000,4239.3366,N,2322.0701,E,1,0,,,M,,M,,*4D
$GPRMC,053222.000,A,4239.3366,N,2322.0701,E,22.98,,260118,,,A*72
$GPGGA,053223.000,4239.3401,N,2322.0641,E,1,0,,,M,,M,,*4F
$GPRMC,053223.000,A,4239.3401,N,2322.0641,E,23.37,,260118,,,A*74
$GPGGA,053224.000,4239.3437,N,2322.0585,E,1,0,,,M,,M,,*46
$GPRMC,053224.000,A,4239.3437,N,2322.0585,E,23.31,,260118,,,A*7B
$GPGGA,053225.000,4239.3470,N,2322.0533,E,1,0,,,M,,M,,*49
$GPRMC,053225.000,A,4239.3470,N,2322.0533,E,22.87,,260118,,,A*78
$GPGGA,053226.000,4239.3507,N,2322.0475,E,1,0,,,M,,M,,*48
$GPRMC,053226.000,A,4239.3507,N,2322.0475,E,23.42,,260118,,,A*71
$GPGGA,053227.000,4239.3541,N,2322.0418,E,1,0,,,M,,M,,*40
$GPRMC,053227.000,A,4239.3541,N,2322.0418,E,23.83,,260118,,,A*74
$GPGGA,053228.000,4239.3574,N,2322.0363,E,1,0,,,M,,M,,*42
$GPRMC,053228.000,A,4239.3574,N,2322.0363,E,23.11,,260118,,,A*7D
$GPGGA,053229.000,4239.3623,N,2322.0288,E,1,0,,,M,,M,,*46
$GPRMC,053229.000,A,4239.3623,N,2322.0288,E,24.20,,260118,,,A*7C
$GPGGA,053230.000,4239.3667,N,2322.0225,E,1,0,,,M,,M,,*49
$GPRMC,053230.000,A,4239.3667,N,2322.0225,E,24.36,,260118,,,A*74
$GPGGA,053231.000,4239.3710,N,2322.0150,E,1,0,,,M,,M,,*48
$GPRMC,053231.000,A,4239.3710,N,2322.0150,E,24.98,,260118,,,A*71
$GPGGA,053232.000,4239.3751,N,2322.0078,E,1,0,,,M,,M,,*45
$GPRMC,053232.000,A,4239.3751,N,2322.0078,E,25.05,,260118,,,A*79
$GPGGA,053233.000,4239.3783,N,2322.0017,E,1,0,,,M,,M,,*42
$GPRMC,053233.000,A,4239.3783,N,2322.0017,E,24.48,,260118,,,A*76
$GPGGA,053234.000,4239.3826,N,2321.9949,E,1,0,,,M,,M,,*4D
$GPRMC,053234.000,A,4239.3826,N,2321.9949,E,25.56,,260118,,,A*77
$GPGGA,053235.000,4239.3864,N,2321.9880,E,1,0,,,M,,M,,*4E
$GPRMC,053235.000,A,4239.3864,N,2321.9880,E,25.72,,260118,,,A*72
$GPGGA,053236.000,4239.3900,N,2321.9817,E,1,0,,,M,,M,,*40
$GPRMC,053236.000,A,4239.3900,N,2321.9817,E,25.02,,260118,,,A*7B
$GPGGA,053237.000,4239.3935,N,2321.9746,E,1,0,,,M,,M,,*4C
$GPRMC,053237.000,A,4239.3935,N,2321.9746,E,25.70,,260118,,,A*72
$GPGGA,053238.000,4239.3979,N,2321.9686,E,1,0,,,M,,M,,*46
$GPRMC,053238.000,A,4239.3979,N,2321.9686,E,25.50,,260118,,,A*7A
$GPGGA,053239.000,4239.4023,N,2321.9626,E,1,0,,,M,,M,,*4C
$GPRMC,053239.000,A,4239.4023,N,2321.9626,E,26.10,,260118,,,A*77
$GPGGA,053240.000,4239.4057,N,2321.9559,E,1,0,,,M,,M,,*4A
$GPRMC,053240.000,A,4239.4057,N,2321.9559,E,24.90,,260118,,,A*7B
$GPGGA,053241.000,4239.4090,N,2321.9492,E,1,0,,,M,,M,,*46
$GPRMC,053241.000,A,4239.4090,N,2321.9492,E,24.71,,260118,,,A*78
$GPGGA,053242.000,4239.4127,N,2321.9421,E,1,0,,,M,,M,,*40
$GPRMC,053242.000,A,4239.4127,N,2321.9421,E,25.17,,260118,,,A*7F
$GPGGA,053243.000,4239.4169,N,2321.9364,E,1,0,,,M,,M,,*4D
$GPRMC,053243.000,A,4239.4169,N,2321.9364,E,25.52,,260118,,,A*73
$GPGGA,053244.000,4239.4206,N,2321.9298,E,1,0,,,M,,M,,*42
$GPRMC,053244.000,A,4239.4206,N,2321.9298,E,25.23,,260118,,,A*7A
$GPGGA,053245.000,4239.4247,N,2321.9215,E,1,0,,,M,,M,,*43
$GPRMC,053245.000,A,4239.4247,N,2321.9215,E,26.04,,260118,,,A*7D
$GPGGA,053246.000,4239.4286,N,2321.9141,E,1,0,,,M,,M,,*4F
$GPRMC,053246.000,A,4239.4286,N,2321.9141,E,26.03,,260118,,,A*76
$GPGGA,053247.000,4239.4323,N,2321.9063,E,1,0,,,M,,M,,*41
$GPRMC,053247.000,A,4239.4323,N,2321.9063,E,25.22,,260118,,,A*78
$GPGGA,053248.000,4239.4359,N,2321.8999,E,1,0,,,M,,M,,*4E
$GPRMC,053248.000,A,4239.4359,N,2321.8999,E,24.41,,260118,,,A*73
$GPGGA,053249.000,4239.4395,N,2321.8931,E,1,0,,,M,,M,,*4D
$GPRMC,053249.000,A,4239.4395,N,2321.8931,E,24.90,,260118,,,A*7C
$GPGGA,053250.000,4239.4439,N,2321.8858,E,1,0,,,M,,M,,*4A
$GPRMC,053250.000,A,4239.4439,N,2321.8858,E,25.58,,260118,,,A*7E
$GPGGA,053251.000,4239.4474,N,2321.8786,E,1,0,,,M,,M,,*4E
$GPRMC,053251.000,A,4239.4474,N,2321.8786,E,24.91,,260118,,,A*7E
$GPGGA,053252.000,4239.4511,N,2321.8725,E,1,0,,,M,,M,,*46
$GPRMC,053252.000,A,4239.4511,N,2321.8725,E,24.92,,260118,,,A*75
$GPGGA,053253.000,4239.4547,N,2321.8655,E,1,0,,,M,,M,,*42
$GPRMC,053253.000,A,4239.4547,N,2321.8655,E,24.62,,260118,,,A*7E
$GPGGA,053254.000,4239.4583,N,2321.8588,E,1,0,,,M,,M,,*4E
